stop_id,stop_name,stop_lat,stop_lon,zone_id,location_type,parent_station,stop_code,stop_desc,stop_url,stop_timezone,wheelchair_boarding,platform_code
S270600000100100,鳥取駅,35.4947897014609,134.225311773636,Z003260,0,,,,,,,０
S270600000100300,鳥取駅,35.4948417637813,134.224652108737,Z003260,0,,,,,,,７
S270600000100500,鳥取駅,35.4948330968595,134.225207614824,Z003260,0,,,,,,,おりば
S270600000100600,鳥取駅,35.4949893154,134.224617384609,Z003260,0,,,,,,,３
S270600000100700,鳥取駅,35.4947983699615,134.224825705772,Z003260,0,,,,,,,６
S270600000200100,太平線,35.4969596174485,134.226526868779,Z002880,0,,,,,,,
S270600000200200,太平線,35.4969596150798,134.226422711444,Z002880,0,,,,,,,
S270600000300100,南町,35.4999280104943,134.225901823826,Z004960,0,,,,,,,
S270600000300200,南町,35.4999019702549,134.225832386489,Z004960,0,,,,,,,
S270600000400100,行徳口,35.5026707296117,134.225033752758,Z001320,0,,,,,,,
S270600000400200,行徳口,35.5027054494042,134.2251031898,Z001320,0,,,,,,,
S270600000500100,寿町,35.5055436491226,134.224478149257,Z001770,0,,,,,,,
S270600000500200,寿町,35.5054915741719,134.224582308363,Z001770,0,,,,,,,
S270600000600100,新品治町,35.5075660087279,134.22551965381,Z002500,0,,,,,,,
S270600000600200,新品治町,35.507609404125,134.225415494999,Z002500,0,,,,,,,
S270600000700100,大森神社前,35.5103955778398,134.227047198448,Z000770,0,,,,,,,
S270600000700200,大森神社前,35.5104302944731,134.226977759043,Z000770,0,,,,,,,
S270600000800100,相生町,35.5126522648385,134.227185998105,Z000000,0,,,,,,,
S270600000800200,相生町,35.5125915048065,134.227047123727,Z000000,0,,,,,,,
S270600000900100,城北団地,35.515516432086,134.223436236621,Z002320,0,,,,,,,
S270600000900200,城北団地,35.5148307718708,134.2245125524,Z002320,0,,,,,,,
S270600001000100,東秋里,35.5191443605041,134.217950493622,Z004130,0,,,,,,,
S270600001000200,東秋里,35.5189968057322,134.217846341311,Z004130,0,,,,,,,
S270600001100100,血液センター前,35.5225813963868,134.214999252242,Z001600,0,,,,,,,
S270600001200100,中央病院,35.5223556695689,134.212430045738,Z003060,0,,,鳥取市,,,,
S270600001200200,中央病院,35.5222688740387,134.212430048691,Z003060,0,,,鳥取市,,,,
S270600001300100,本通り,35.4968815591079,134.22906136661,Z004730,0,,,,,,,
S270600001300200,本通り,35.4972113947719,134.229616861186,Z004730,0,,,,,,,
S270600001400100,川端一丁目,35.4986261975137,134.231179173114,Z001140,0,,,,,,,
S270600001400200,川端一丁目,35.4987129906787,134.231075012825,Z001140,0,,,,,,,
S270600001500100,本町一丁目,35.500379515476,134.233296979313,Z004740,0,,,鳥取市,,,,
S270600001500200,本町一丁目,35.5003534712873,134.233053946415,Z004740,0,,,鳥取市,,,,
S270600001600100,県庁日赤前,35.5026970296883,134.236525777892,Z001610,0,,,,,,,
S270600001600200,県庁日赤前,35.5028706191761,134.236456333763,Z001610,0,,,,,,,
S270600001700100,西町,35.5058042710844,134.234824435684,Z003730,0,,,鳥取市,,,,
S270600001700200,西町,35.5059431368283,134.234511958952,Z003730,0,,,鳥取市,,,,
S270600001800100,湯所,35.5093454395711,134.230901055561,Z005310,0,,,,,,,
S270600001800200,湯所,35.5094322374736,134.231005209943,Z005310,0,,,,,,,
S270600001900100,覚寺口,35.5221043187668,134.22808837327,Z000930,0,,,,,,,
S270600001900200,覚寺口,35.5240485805363,134.229928419955,Z000930,0,,,,,,,
S270600002000100,子供の国入口,35.5340821667521,134.230934932421,Z001780,0,,,,,,,
S270600002000200,子供の国入口,35.5334398711383,134.230553044085,Z001780,0,,,,,,,
S270600002100100,砂丘東口,35.5385957089958,134.238607702073,Z001870,0,,,,,,,
S270600002100200,砂丘東口,35.5387172227369,134.238607697931,Z001870,0,,,,,,,
S270600002200100,浜湯山,35.5410261989243,134.248051217349,Z004040,0,,,,,,,
S270600002200200,浜湯山,35.5409480821567,134.248016500902,Z004040,0,,,,,,,
S270600002300100,中湯山,35.5403753337004,134.25249528575,Z003570,0,,,,,,,
S270600002300200,中湯山,35.5404447693333,134.25246056427,Z003570,0,,,,,,,
S270600002400100,山湯山,35.5421200100841,134.25627960935,Z005270,0,,,,,,,
S270600002400200,山湯山,35.5419984979246,134.256349051716,Z005270,0,,,,,,,
S270600002500100,西海士,35.5454618231549,134.26440376734,Z006120,0,,,,,,,
S270600002600100,海士,35.5469027366003,134.26912551729,Z000120,0,,,,,,,
S270600002600200,海士,35.5469982108916,134.26909079492,Z000120,0,,,,,,,
S270600002700100,中海士,35.5471718716174,134.272146070787,Z003410,0,,,,,,,
S270600002700200,中海士,35.5471111147465,134.272146072862,Z003410,0,,,,,,,
S270600002800100,県,35.5478576505242,134.276277621632,Z000030,0,,,,,,,
S270600002800200,県,35.5479531240237,134.276208180149,Z000030,0,,,,,,,
S270600002900100,福部保育園前,35.5462259840338,134.280200936948,Z004500,0,,,,,,,
S270600002900200,福部保育園前,35.5463388205991,134.28030509043,Z004500,0,,,,,,,
S270600003000100,福部未来学園前,35.5450890124725,134.282388279806,Z004480,0,,,,,,,
S270600003000200,福部未来学園前,35.5449761759068,134.282284126323,Z004480,0,,,,,,,
S270600003100100,福部町総合支所前,35.5442645087816,134.284749207561,Z004490,0,,,,,,,
S270600003100200,福部町総合支所前,35.5443686665866,134.284888080451,Z004490,0,,,,,,,
S270600003200100,細川口,35.5522496112495,134.280964551693,Z004670,0,,,,,,,
S270600003200200,細川口,35.5522322489755,134.28082567584,Z004670,0,,,,,,,
S270600003300100,細川,35.5578045124606,134.280408856156,Z004660,0,,,,,,,
S270600003300200,細川,35.5577524375196,134.280513015269,Z004660,0,,,,,,,
S270600003400100,平野口,35.5667534111852,134.292664396544,Z004360,0,,,,,,,
S270600003400200,平野口,35.5668488878518,134.292733831501,Z004360,0,,,,,,,
S270600003500100,大谷西口,35.5719871577568,134.291622644232,Z000700,0,,,,,,,
S270600003500200,大谷西口,35.5720652705612,134.291483765116,Z000700,0,,,,,,,
S270600003600100,大谷,35.5732544557011,134.295268107539,Z000690,0,,,,,,,
S270600003600200,大谷,35.5733499299889,134.295233385162,Z000690,0,,,,,,,
S270600003700100,大谷東口,35.5736190738242,134.298635848839,Z000710,0,,,,,,,
S270600003700200,大谷東口,35.5735062396378,134.2986358527,Z000710,0,,,,,,,
S270600003800100,岩美西小学校,35.5773946776957,134.298566281436,Z000430,0,,,,,,,
S270600003800200,岩美西小学校,35.5774554361509,134.298635717579,Z000430,0,,,,,,,
S270600003900100,島めぐり遊覧船のりば前,35.5792347143293,134.297316330479,Z002100,0,,,,,,,
S270600003900200,島めぐり遊覧船のりば前,35.5792607514015,134.297246891367,Z002100,0,,,,,,,
S270600004000100,下沓井,35.5815347664564,134.296031644671,Z002130,0,,,,,,,
S270600004100100,網代口,35.582697770215,134.293566548013,Z000100,0,,,,,,,
S270600004200100,網代,35.5843121590787,134.29321930166,Z000090,0,,,,,,,
S270600004200200,網代,35.5843468757033,134.293149862251,Z000090,0,,,,,,,
S270600004300100,公民館前,35.5811963170324,134.298357836675,Z001720,0,,,岩美郡,,,,
S270600004300200,公民館前,35.581265753454,134.298357834299,Z001720,0,,,岩美郡,,,,
S270600004400100,岩本,35.5790699923709,134.305614203641,Z000440,0,,,,,,,
S270600004400200,岩本,35.5790179142612,134.305579486312,Z000440,0,,,,,,,
S270600004500100,岩本東,35.5776900569094,134.310579083777,Z000450,0,,,,,,,
S270600004500200,岩本東,35.5778115666823,134.310405484061,Z000450,0,,,,,,,
S270600004600100,浦富熊野神社前,35.5834189267906,134.326549678843,Z000560,0,,,,,,,
S270600004600200,浦富熊野神社前,35.5834102496192,134.326653836474,Z000560,0,,,,,,,
S270600004700100,浦富海岸口,35.5856322389513,134.32769533369,Z000550,0,,,,,,,
S270600004700200,浦富海岸口,35.5856843170619,134.327730051017,Z000550,0,,,,,,,
S270600004800100,浦富,35.5846167939913,134.330438178296,Z000540,0,,,,,,,
S270600004800200,浦富,35.5846775524489,134.330507614438,Z000540,0,,,,,,,
S270600004900100,岩美幹部派出所北,35.5810148295783,134.332625605751,Z000390,0,,,,,,,
S270600004900200,岩美幹部派出所北,35.5810148335479,134.332799201311,Z000390,0,,,,,,,
S270600005000100,岩美幹部派出所前,35.579226846448,134.33283398168,Z000400,0,,,,,,,
S270600005100100,岩美町役場前,35.575295012945,134.333007711928,Z000420,0,,,,,,,
S270600005100200,岩美町役場前,35.5752950105636,134.332903554591,Z000420,0,,,,,,,
S270600005200100,すこやかセンター・岩美病院,35.5736806264149,134.33345911568,Z002590,0,,,,,,,
S270600005200200,すこやかセンター・岩美病院,35.5737587423916,134.333459113005,Z002590,0,,,,,,,
S270600005300100,岩美駅,35.5740799239546,134.335125619385,Z000380,0,,,,,,,
S270600005300200,岩美駅,35.5741580407252,134.335160335823,Z000380,0,,,,,,,
S270600005400100,岩美車庫,35.5729081723957,134.334604872838,Z000410,0,,,,,,,
S270600005400200,岩美車庫,35.5728908156712,134.334709030769,Z000410,0,,,,,,,
S270600005500100,住宅前,35.5709900221419,134.335958983911,Z002270,0,,,岩美郡,,,,
S270600005500200,住宅前,35.5710334222884,134.336063139761,Z002270,0,,,岩美郡,,,,
S270600005600100,広岡口,35.5669280802237,134.339847663614,Z004370,0,,,岩美郡,,,,
S270600005600200,広岡口,35.566945443299,134.340021258582,Z004370,0,,,岩美郡,,,,
S270600005700100,恩志橋,35.5641333347754,134.342937760348,Z000880,0,,,,,,,
S270600005700200,恩志橋,35.5640812550751,134.342833604794,Z000880,0,,,,,,,
S270600005800100,坂上,35.5596548949311,134.352103759545,Z001840,0,,,,,,,
S270600005800200,坂上,35.5598371615789,134.351930157737,Z001840,0,,,,,,,
S270600005900100,里久の里前,35.5574417351048,134.357624174362,Z005540,0,,,,,,,
S270600005900200,里久の里前,35.5575285314317,134.357658890503,Z005540,0,,,,,,,
S270600006000100,岩井温泉口,35.5563394826598,134.359846235379,Z000350,0,,,,,,,
S270600006000200,岩井温泉口,35.5564262805754,134.359950389746,Z000350,0,,,,,,,
S270600006100100,岩井温泉,35.5555236562682,134.362103005706,Z000330,0,,,,,,,
S270600006100200,岩井温泉,35.555480256119,134.361998849851,Z000330,0,,,,,,,
S270600006200100,長者寮入口,35.5562354201458,134.363873656123,Z003100,0,,,,,,,
S270600006200200,長者寮入口,35.5561486238183,134.363838939982,Z003100,0,,,,,,,
S270600006300100,御湯神社入口,35.555436998141,134.368109415353,Z005040,0,,,,,,,
S270600006300200,御湯神社入口,35.5555064369509,134.368213570315,Z005040,0,,,,,,,
S270600006400100,長谷橋,35.5531457851165,134.376372642982,Z003510,0,,,,,,,
S270600006400200,長谷橋,35.5532412689438,134.376754549967,Z003510,0,,,,,,,
S270600006500100,白地,35.5446833205669,134.380747541308,Z002380,0,,,,,,,
S270600006500200,白地,35.5446920040928,134.380921136585,Z002380,0,,,,,,,
S270600006600100,相山,35.5398575110166,134.381719841807,Z000010,0,,,,,,,
S270600006600200,相山,35.5398401566756,134.38192815709,Z000010,0,,,,,,,
S270600006700100,馬場,35.5367502443177,134.382310173166,Z003960,0,,,岩美郡,,,,
S270600006700200,馬場,35.5367328875934,134.382414331106,Z003960,0,,,岩美郡,,,,
S270600006800100,法正寺口,35.5312649347803,134.389670813412,Z004610,0,,,,,,,
S270600006800200,法正寺口,35.5313343735938,134.38977496838,Z004610,0,,,,,,,
S270600006900100,蒲生,35.5295898738516,134.393733007281,Z001100,0,,,,,,,
S270600006900200,蒲生,35.5296419543524,134.393871881959,Z001100,0,,,,,,,
S270600007000100,塩谷,35.5264913652971,134.397760530802,Z002080,0,,,,,,,
S270600007000200,塩谷,35.5264653242518,134.397656374347,Z002080,0,,,,,,,
S270600007100100,神堀,35.5245905843139,134.399565989913,Z002490,0,,,,,,,
S270600007100200,神堀,35.5246339836725,134.399635426659,Z002490,0,,,,,,,
S270600007200100,山ノ神,35.5218044371797,134.399114736798,Z005250,0,,,,,,,
S270600007200200,山ノ神,35.5218044395632,134.399218894146,Z005250,0,,,,,,,
S270600007300100,銀山,35.5169265087903,134.398281644988,Z001370,0,,,,,,,
S270600007300200,銀山,35.5169265119677,134.398420521453,Z001370,0,,,,,,,
S270600007400100,横尾口,35.5125259471071,134.397066626514,Z005380,0,,,,,,,
S270600007400200,横尾口,35.5125519889462,134.397205502089,Z005380,0,,,,,,,
S270600007500100,洗井,35.5092798089809,134.397726400793,Z000130,0,,,,,,,
S270600007500200,洗井,35.5092798065983,134.397622243444,Z000130,0,,,,,,,
S270600007600100,蕪島,35.5062941718302,134.403385718951,Z000980,0,,,,,,,
S270600007600200,蕪島,35.5063809673715,134.403385715981,Z000980,0,,,,,,,
S270600007700100,丸山,35.5182504921161,134.223470862686,Z004870,0,,,鳥取市,,,,
S270600007700200,丸山,35.5183112474083,134.223401422395,Z004870,0,,,鳥取市,,,,
S270600007800100,渡辺美術館前,35.521514085454,134.227046820034,Z005720,0,,,,,,,
S270600007800200,渡辺美術館前,35.521123500034,134.226803799553,Z005720,0,,,,,,,
S270600007900100,岩井温泉上,35.5546817800982,134.36387370934,Z000340,0,,,,,,,
S270600007900200,岩井温泉上,35.554759898461,134.363977864006,Z000340,0,,,,,,,
S270600008000100,真名,35.5498822213834,134.374116012368,Z004840,0,,,,,,,
S270600008000200,真名,35.5499776980602,134.374185447325,Z004840,0,,,,,,,
S270600008100100,白地入口,35.5462977024311,134.380087822831,Z002390,0,,,,,,,
S270600008100200,白地入口,35.5463844995554,134.380157258087,Z002390,0,,,,,,,
S270600008200100,ニュー浜坂,35.5240919522267,134.228782687815,Z003770,0,,,,,,,
S270600008200200,ニュー浜坂,35.5240311937748,134.228713251662,Z003770,0,,,,,,,
S270600008300100,タウン浜坂,35.5262617741214,134.225866208615,Z002900,0,,,,,,,
S270600008300200,タウン浜坂,35.5263138530198,134.225935645064,Z002900,0,,,,,,,
S270600008400100,中の郷中学校入口,35.5273900836211,134.224442686654,Z003530,0,,,,,,,
S270600008400200,中の郷中学校入口,35.5274248034134,134.224512123693,Z003530,0,,,,,,,
S270600008500100,浜坂東口,35.5266435788581,134.221665183214,Z004030,0,,,,,,,
S270600008500200,浜坂東口,35.5267216979953,134.221804056997,Z004030,0,,,,,,,
S270600008600100,浜坂,35.5281884903125,134.219512545756,Z003980,0,,,,,,,
S270600008600200,浜坂,35.5281103711758,134.219373671975,Z003980,0,,,,,,,
S270600008700100,浜坂小学校入口,35.5286918293408,134.216214213122,Z003990,0,,,,,,,
S270600008700200,浜坂小学校入口,35.5286571134986,134.216318371636,Z003990,0,,,,,,,
S270600008800100,みどり町,35.5305665756521,134.214582351109,Z004930,0,,,鳥取市,,,,
S270600008800200,みどり町,35.5306012946537,134.214617069037,Z004930,0,,,鳥取市,,,,
S270600008900100,浜坂団地,35.5312435128516,134.21159648458,Z004010,0,,,,,,,
S270600008900200,浜坂団地,35.5312521908249,134.211527046064,Z004010,0,,,,,,,
S270600009000200,浜坂団地口,35.5294641871278,134.210832724725,Z004020,0,,,,,,,
S270600009000100,浜坂団地口,35.5295336235512,134.210832722362,Z004020,0,,,,,,,
S270600009100200,東ひばりヶ丘,35.5304015290879,134.208645388876,Z004210,0,,,,,,,
S270600009100100,東ひばりヶ丘,35.5304536079848,134.208714825323,Z004210,0,,,,,,,
S270600009200200,西ひばりヶ丘,35.5313302175558,134.20760378396,Z003700,0,,,,,,,
S270600009200100,西ひばりヶ丘,35.5313822964526,134.207673220409,Z003700,0,,,,,,,
S270600009300100,十六本松口,35.5326060715529,134.20583306592,Z002280,0,,,,,,,
S270600009300200,十六本松口,35.5326841883183,134.20586778237,Z002280,0,,,,,,,
S270600009400200,浜坂新田,35.5329358645531,134.204513728515,Z004000,0,,,,,,,
S270600009400100,浜坂新田,35.5330053017657,134.204548445262,Z004000,0,,,,,,,
S270600009500100,八丁目入口,35.5352532238242,134.200937581323,Z003920,0,,,,,,,
S270600009600100,八丁目中央,35.5361732927461,134.202534629052,Z003930,0,,,,,,,
S270600009700100,八丁目,35.5346543804797,134.202951310074,Z003910,0,,,,,,,
S270600009800100,覚寺口,35.5234670583809,134.230275630867,Z000940,0,,,北園,,,,
S270600009900100,摩尼寺口,35.52453471137,134.233261438062,Z004850,0,,,,,,,
S270600010000100,北園渡辺病院前,35.5238403676687,134.234164158598,Z001290,0,,,,,,,
S270600010100100,北園二丁目,35.5209588255731,134.23721953852,Z001270,0,,,,,,,
S270600010200100,円護寺,35.5196308997756,134.239233292204,Z000600,0,,,,,,,
S270600010300100,北谷橋上,35.5223042377193,134.240795561171,Z001300,0,,,,,,,
S270600010400100,谷川橋,35.5211672771172,134.24346897148,Z003000,0,,,,,,,
S270600010500100,北園ニュータウン,35.5195528407023,134.24173307089,Z001280,0,,,,,,,
S270600010600100,情報センター前,35.5181207523613,134.243399637018,Z002310,0,,,,,,,
S270600010700100,吉川公園前,35.5149527486222,134.244857947597,Z001310,0,,,,,,,
S270600010800100,渡り上り橋,35.5154561279356,134.243330289537,Z005730,0,,,,,,,
S270600010900100,前田橋,35.5162806372841,134.241212395647,Z004760,0,,,,,,,
S270600011000100,公園墓地入口,35.5179557412671,134.239025034578,Z001640,0,,,,,,,
S270600011100100,砂丘センター展望台,35.5411301337072,134.238399301016,Z001860,0,,,,,,,
S270600011200100,砂の美術館前,35.5403315745143,134.236628653597,Z002610,0,,,,,,,
S270600011200200,砂の美術館前,35.5406527195534,134.236698080871,Z002610,0,,,,,,,
S270600011300100,砂丘会館,35.5432392350141,134.237079902915,Z003270,0,,,,,,,
S270600011400100,雲山日交,35.4755387208327,134.237151645312,Z001490,0,,,道路沿,,,,
S270600011400200,雲山日交,35.4755387239904,134.237290521764,Z001490,0,,,道路沿,,,,
S270600011500100,雲山南団地,35.4771357413485,134.23638777056,Z001500,0,,,,,,,
S270600011500200,雲山南団地,35.4771444232705,134.236491927604,Z001500,0,,,,,,,
S270600011600100,団地中央,35.47971354353,134.235276671348,Z003030,0,,,,,,,
S270600011600200,団地中央,35.4797395845592,134.235380827802,Z003030,0,,,,,,,
S270600011700100,南大橋,35.4823521128382,134.234616918533,Z004940,0,,,,,,,
S270600011700200,南大橋,35.482369467998,134.23444332238,Z004940,0,,,,,,,
S270600011800100,井原公園前,35.4859107013929,134.233366909525,Z000280,0,,,,,,,
S270600011800200,井原公園前,35.4859106998138,134.2332974713,Z000280,0,,,,,,,
S270600011900100,興南町,35.4888964022849,134.230485121698,Z001710,0,,,,,,,
S270600011900200,興南町,35.4887228104248,134.230450408486,Z001710,0,,,,,,,
S270600012000100,富安,35.4899986242653,134.226909015662,Z003350,0,,,,,,,
S270600012000200,富安,35.4901288207254,134.227047887686,Z003350,0,,,,,,,
S270600012100100,扇町,35.4911269125378,134.224548077682,Z000620,0,,,,,,,
S270600012100200,扇町,35.4909880381034,134.224478644177,Z000620,0,,,,,,,
S270600012200100,年金事務所前,35.4929582635834,134.223020374501,Z003790,0,,,,,,,
S270600012200200,年金事務所前,35.4924548455368,134.222846796053,Z003790,0,,,,,,,
S270600012300100,市立病院,35.474314813771,134.233193708004,Z002410,0,,,鳥取市,,,,
S270600012300200,市立病院,35.4743148153496,134.23326314623,Z002410,0,,,鳥取市,,,,
S270600012400100,大覚寺東,35.4783074029455,134.232950538566,Z002790,0,,,,,,,
S270600012400200,大覚寺東,35.4783681621893,134.233054693841,Z002790,0,,,,,,,
S270600012500100,大覚寺中,35.4796092941583,134.231110381352,Z002780,0,,,,,,,
S270600012500200,大覚寺中,35.4795572152577,134.231040944895,Z002780,0,,,,,,,
S270600012600100,大覚寺口,35.4805032274049,134.228436979299,Z002770,0,,,,,,,
S270600012600200,大覚寺口,35.4804251114223,134.228436981953,Z002770,0,,,,,,,
S270600012700100,吉成二丁目,35.4845999427597,134.226943918256,Z005410,0,,,,,,,
S270600012700200,吉成二丁目,35.4844957912744,134.227082798245,Z005410,0,,,,,,,
S270600012800100,南中前,35.4878114194096,134.22878392207,Z004950,0,,,,,,,
S270600012800200,南中前,35.4877767027744,134.228853361475,Z004950,0,,,,,,,
S270600012900100,大覚寺,35.4799650595635,134.226874637514,Z002760,0,,,,,,,
S270600012900200,大覚寺,35.4799910958566,134.226770479292,Z002760,0,,,,,,,
S270600013000100,宮長,35.4768837982924,134.22600676437,Z005030,0,,,,,,,
S270600013000200,宮長,35.476875115582,134.225867888214,Z005030,0,,,,,,,
S270600013100100,土井叶,35.4731776059889,134.225000035978,Z003220,0,,,中筋沿い,,,,
S270600013100200,土井叶,35.4735855489579,134.225173617688,Z003220,0,,,中筋沿い,,,,
S270600013200100,上叶,35.4720838110214,134.21746602565,Z001020,0,,,,,,,
S270600013200200,上叶,35.4714068018905,134.217292453071,Z001020,0,,,,,,,
S270600013300100,数津,35.4682736510331,134.224687730481,Z002600,0,,,,,,,
S270600013300200,数津,35.468238935185,134.224791888998,Z002600,0,,,,,,,
S270600013400100,馬場,35.463751561703,134.222847770999,Z003970,0,,,鳥取市,,,,
S270600013400200,馬場,35.4637342002289,134.222743614249,Z003970,0,,,鳥取市,,,,
S270600013500100,バードスタジアム,35.4590125324094,134.223160403854,Z003840,0,,,,,,,
S270600013500200,バードスタジアム,35.4590125355644,134.223299280307,Z003840,0,,,,,,,
S270600013600100,八坂,35.4544991036621,134.220487185262,Z003900,0,,,,,,,
S270600013600200,八坂,35.4545424998544,134.220417745562,Z003900,0,,,,,,,
S270600013700100,八坂上,35.4522597235545,134.218056923283,Z001520,0,,,,,,,
S270600013700200,八坂上,35.4523117985127,134.217952764176,Z001520,0,,,,,,,
S270600013900100,橋本,35.4567558783726,134.224479806739,Z003880,0,,,,,,,
S270600013900200,橋本,35.4568079564847,134.224514524085,Z003880,0,,,,,,,
S270600014000100,農業試験場前,35.4563393639051,134.22906274386,Z003810,0,,,,,,,
S270600014000200,農業試験場前,35.4562699282624,134.22909746533,Z003810,0,,,,,,,
S270600014100100,美和,35.4561658256808,134.231388930363,Z005080,0,,,,,,,
S270600014100200,美和,35.4560877096954,134.231388933014,Z005080,0,,,,,,,
S270600014200100,古郡家,35.4567561426487,134.236110709795,Z001750,0,,,,,,,
S270600014200200,古郡家,35.4566780290302,134.236214869788,Z001750,0,,,,,,,
S270600014300100,米里小学校前,35.4580841522782,134.237777182174,Z005510,0,,,,,,,
S270600014300200,米里小学校前,35.4579713204442,134.237881343347,Z005510,0,,,,,,,
S270600014400100,団地西,35.4581796944486,134.240728303607,Z003040,0,,,,,,,
S270600014400200,団地西,35.4580842193551,134.240728306848,Z003040,0,,,,,,,
S270600014500100,組合会館前,35.4580148476389,134.243575276545,Z001460,0,,,,,,,
S270600014500200,組合会館前,35.4579280528884,134.243609998607,Z001460,0,,,,,,,
S270600014600100,南栄工業団地,35.4578499929415,134.246075058351,Z003610,0,,,,,,,
S270600014600200,南栄工業団地,35.4579367884814,134.246075055404,Z003610,0,,,,,,,
S270600014700100,桂木,35.4578500774029,134.249790003557,Z003130,0,,,,,,,
S270600014700200,桂木,35.4579281941784,134.249824720018,Z003130,0,,,,,,,
S270600014800100,鳥工前,35.4577720553624,134.253921580799,Z003400,0,,,,,,,
S270600014800200,鳥工前,35.4578675288777,134.253852139327,Z003400,0,,,,,,,
S270600014900100,生山,35.4583883810757,134.257324033064,Z002290,0,,,,,,,
S270600014900200,生山,35.4583796991528,134.257219876017,Z002290,0,,,,,,,
S270600015000100,津ノ井四区,35.4601416344062,134.256594872102,Z003150,0,,,,,,,
S270600015000200,津ノ井四区,35.4600895555029,134.256525435642,Z003150,0,,,,,,,
S270600015100100,津ノ井一区,35.4615737039636,134.254095047228,Z003110,0,,,,,,,
S270600015100200,津ノ井一区,35.4615997457838,134.2542339228,Z003110,0,,,,,,,
S270600015200100,岡本医院前,35.4617558869577,134.250241219376,Z000800,0,,,,,,,
S270600015200200,岡本医院前,35.4618340037329,134.250275935837,Z000800,0,,,,,,,
S270600015300100,杉崎,35.4662431587031,134.247706571623,Z002580,0,,,,,,,
S270600015300200,杉崎,35.4662257972268,134.247602414871,Z002580,0,,,,,,,
S270600015400100,桜谷口,35.4732995357023,134.243297004442,Z001930,0,,,,,,,
S270600015400200,桜谷口,35.4732300953244,134.243123411235,Z001930,0,,,,,,,
S270600015500100,正蓮寺,35.4755909047353,134.241838723817,Z002340,0,,,,,,,
S270600015500200,正蓮寺,35.4754780673785,134.241699851198,Z002340,0,,,,,,,
S270600015600100,雲山,35.4789758793654,134.239581866425,Z001470,0,,,,,,,
S270600015600200,雲山,35.478967195864,134.239408271155,Z001470,0,,,,,,,
S270600015700100,大杙口,35.4819616545153,134.239963675184,Z000660,0,,,,,,,
S270600015700200,大杙口,35.4819963679922,134.239755359327,Z000660,0,,,,,,,
S270600015800100,南吉方三丁目,35.4862059491338,134.239651058882,Z005820,0,,,旧２９号,,,,
S270600015800200,南吉方三丁目,35.4861972656318,134.239477463614,Z005820,0,,,旧２９号,,,,
S270600015900100,内吉方,35.4922816066177,134.238331526012,Z000490,0,,,,,,,
S270600015900200,内吉方,35.4921600912888,134.238262091919,Z000490,0,,,,,,,
S270600016000100,文化センター前,35.4924638014272,134.234998485023,Z004560,0,,,,,,,
S270600016000200,文化センター前,35.4925332394346,134.235067920886,Z004560,0,,,,,,,
S270600016100100,生協病院前,35.494121525073,134.231873708546,Z002630,0,,,,,,,
S270600016100200,生協病院前,35.4942083221869,134.231943143819,Z002630,0,,,,,,,
S270600016200100,ＪＡ会館前,35.4956143482553,134.229235005261,Z003800,0,,,,,,,
S270600016200200,ＪＡ会館前,35.4955535898022,134.229165569102,Z003800,0,,,,,,,
S270600016300100,的場,35.4750524858613,134.229235704068,Z004830,0,,,,,,,
S270600016300200,的場,35.4751306018446,134.229235701415,Z004830,0,,,,,,,
S270600016400100,土井叶,35.4728738366018,134.225659709438,Z003210,0,,,,,,,
S270600016500100,東富安,35.4902590961349,134.230658670936,Z004200,0,,,,,,,
S270600016500200,東富安,35.4902070203928,134.23072811093,Z004200,0,,,,,,,
S270600016600100,西大路,35.4725096852545,134.242810963694,Z003640,0,,,,,,,
S270600016600200,西大路,35.4726659188017,134.242880396611,Z003640,0,,,,,,,
S270600016700100,津ノ井駅前,35.4610007365528,134.248956637809,Z003120,0,,,,,,,
S270600016700200,津ノ井駅前,35.4610094184751,134.249060794857,Z003120,0,,,,,,,
S270600016800100,津ノ井小学校前,35.4576591090588,134.248991470417,Z003140,0,,,,,,,
S270600016800200,津ノ井小学校前,35.4576591066906,134.248887313075,Z003140,0,,,,,,,
S270600016900100,広岡口,35.452659689881,134.249165235753,Z004380,0,,,鳥取市,,,,
S270600016900200,広岡口,35.4526857309111,134.249269392213,Z004380,0,,,鳥取市,,,,
S270600017000100,海蔵寺,35.4493875887572,134.253158045011,Z000910,0,,,,,,,
S270600017000200,海蔵寺,35.4494049518121,134.253331639995,Z000910,0,,,,,,,
S270600017100100,環境大学前,35.4501775252786,134.257428469287,Z001180,0,,,,,,,
S270600017100200,環境大学前,35.4502556404764,134.25739374752,Z001180,0,,,,,,,
S270600017200100,若葉台北五丁目,35.4509501074457,134.261907208848,Z005630,0,,,,,,,
S270600017200200,若葉台北五丁目,35.4508459512167,134.261837774156,Z005630,0,,,,,,,
S270600017300100,若葉台南二丁目,35.4482508213695,134.264337638564,Z005700,0,,,,,,,
S270600017300200,若葉台南二丁目,35.4482768624008,134.264441795025,Z005700,0,,,,,,,
S270600017400100,若葉台南五丁目,35.445577500513,134.263539189704,Z005670,0,,,,,,,
S270600017400200,若葉台南五丁目,35.4456295762593,134.263469749706,Z005670,0,,,,,,,
S270600017500100,若葉台南六丁目,35.4422010757594,134.260102111953,Z005710,0,,,,,,,
S270600017500200,若葉台南六丁目,35.4422618310603,134.26003267166,Z005710,0,,,,,,,
S270600017600100,若葉台南七丁目,35.4398054864206,134.258678709552,Z005690,0,,,,,,,
S270600017600200,若葉台南七丁目,35.4397968044985,134.258574552501,Z005690,0,,,,,,,
S270600017700100,祢宜谷,35.4362121106932,134.256908156631,Z003780,0,,,,,,,
S270600017700200,祢宜谷,35.4361860759763,134.25708175309,Z003780,0,,,,,,,
S270600017800100,堀越,35.4277843478374,134.260623387923,Z004680,0,,,,,,,
S270600017800200,堀越,35.4278190684224,134.260727544092,Z004680,0,,,,,,,
S270600017900100,奥谷口,35.4192436251997,134.258818283568,Z000810,0,,,,,,,
S270600017900200,奥谷口,35.4192089101372,134.258957161208,Z000810,0,,,,,,,
S270600018000100,宮谷,35.4155894641084,134.255797844369,Z005020,0,,,,,,,
S270600018000200,宮谷,35.4155460687018,134.255902003187,Z005020,0,,,,,,,
S270600018100100,鳥取県八頭庁舎前,35.4125081843763,134.25413143124,Z005800,0,,,,,,,
S270600018100200,鳥取県八頭庁舎前,35.4123693115028,134.254131435946,Z005800,0,,,,,,,
S270600018200100,郡家駅前,35.4130549379571,134.251562198129,Z001740,0,,,,,,,
S270600018200200,郡家駅前,35.4131504091144,134.251388599313,Z001740,0,,,,,,,
S270600018300100,八頭町本庁舎前,35.4090883744096,134.251249860494,Z005140,0,,,,,,,
S270600018300200,八頭町本庁舎前,35.4090623341687,134.251180423144,Z005140,0,,,,,,,
S270600018400100,西御門,35.3966770716929,134.271526245118,Z003740,0,,,,,,,
S270600018400200,西御門,35.396633672341,134.271456808354,Z003740,0,,,,,,,
S270600018500100,市谷,35.3926672814017,134.278747957388,Z000220,0,,,,,,,
S270600018500200,市谷,35.3926325616041,134.278678520329,Z000220,0,,,,,,,
S270600018600100,郡家殿,35.3900201054912,134.282636588258,Z001660,0,,,,,,,
S270600018600200,郡家殿,35.3899767045603,134.282497713259,Z001660,0,,,,,,,
S270600018700100,花,35.3872513944968,134.285587807087,Z003940,0,,,,,,,
S270600018700200,花,35.3873381908364,134.285622523265,Z003940,0,,,,,,,
S270600018800100,大門,35.384647595036,134.288539020341,Z002890,0,,,,,,,
S270600018800200,大門,35.3847083550778,134.288677894754,Z002890,0,,,,,,,
S270600018900100,安部駅入口,35.3772961932834,134.296524666629,Z005790,0,,,,,,,
S270600018900200,安部駅入口,35.3773395950049,134.296698260751,Z005790,0,,,,,,,
S270600019000100,安井,35.375569043064,134.300100794368,Z005120,0,,,,,,,
S270600019000200,安井,35.3756471637961,134.300309106435,Z005120,0,,,,,,,
S270600019100100,八東保育所前,35.3746230599232,134.30398936773,Z006130,0,,,,,,,
S270600019100200,八東保育所前,35.3745536211132,134.303885212726,Z006130,0,,,,,,,
S270600019200100,新興寺,35.3726442081241,134.307808537871,Z002430,0,,,,,,,
S270600019200200,新興寺,35.3725487298582,134.30766966463,Z002430,0,,,,,,,
S270600019300100,小別府,35.3687732171905,134.311801367741,Z001820,0,,,,,,,
S270600019300200,小別府,35.3687298178349,134.311731930974,Z001820,0,,,,,,,
S270600019400100,竹市,35.3664125683467,134.320168755538,Z002940,0,,,,,,,
S270600019400200,竹市,35.3663431319029,134.320168757891,Z002940,0,,,,,,,
S270600019500100,下徳丸口,35.3669943946771,134.333188405772,Z002180,0,,,,,,,
S270600019500200,下徳丸口,35.3669336369985,134.333153688712,Z002180,0,,,,,,,
S270600019600100,下徳丸,35.3664823909421,134.337146402825,Z002170,0,,,,,,,
S270600019600200,下徳丸,35.3665691872876,134.337181119003,Z002170,0,,,,,,,
S270600019700100,保険センター前,35.3656839555617,134.340826656646,Z004650,0,,,,,,,
S270600019700200,保険センター前,35.3657794346231,134.34100024901,Z004650,0,,,,,,,
S270600019800100,上徳丸,35.3633926366186,134.344506961105,Z001050,0,,,,,,,
S270600019800200,上徳丸,35.3633405569148,134.34440280551,Z001050,0,,,,,,,
S270600019900100,重枝,35.3625681696891,134.348499687932,Z002090,0,,,,,,,
S270600019900200,重枝,35.3626636440113,134.348464965574,Z002090,0,,,,,,,
S270600020000100,丹比駅前,35.3615528299844,134.355894895097,Z003050,0,,,,,,,
S270600020000200,丹比駅前,35.3614139570929,134.355894899807,Z003050,0,,,,,,,
S270600020100100,富枝,35.3612578428506,134.361068054133,Z003320,0,,,,,,,
S270600020100200,富枝,35.361335958062,134.361033332363,Z003320,0,,,,,,,
S270600020200100,山崎橋,35.3619002366904,134.365755113694,Z005210,0,,,,,,,
S270600020200200,山崎橋,35.3618221214791,134.365789835466,Z005210,0,,,,,,,
S270600020300100,野口,35.365979721976,134.369886550678,Z003830,0,,,,,,,
S270600020300200,野口,35.3661099145211,134.369851827138,Z003830,0,,,,,,,
S270600020400100,用呂,35.367420684812,134.376760887768,Z005370,0,,,,,,,
S270600020400200,用呂,35.3673512467842,134.376691451882,Z005370,0,,,,,,,
S270600020500100,高野,35.3577777892534,134.380753914072,Z002920,0,,,,,,,
S270600020500200,高野,35.357829870543,134.380927507915,Z002920,0,,,,,,,
S270600020600100,上高野,35.354462271653,134.38394818581,Z001040,0,,,,,,,
S270600020600200,上高野,35.3543407562881,134.383878751689,Z001040,0,,,,,,,
S270600020700100,福祉センター前,35.3474841190058,134.393183709148,Z004450,0,,,,,,,
S270600020700200,福祉センター前,35.3474407188525,134.393079553253,Z004450,0,,,,,,,
S270600020800100,西町,35.3465727893462,134.394225313752,Z003720,0,,,八頭郡,,,,
S270600020800200,西町,35.3466595872801,134.394329468174,Z003720,0,,,八頭郡,,,,
S270600020900100,若桜駅前,35.3443508830969,134.396864042476,Z005590,0,,,,,,,
S270600020900200,若桜駅前,35.3444376802402,134.396933477776,Z005590,0,,,,,,,
S270600021000100,銀行前,35.3423719909646,134.398912537875,Z001360,0,,,八頭郡若桜町,,,,
S270600021000200,銀行前,35.3424067115622,134.399016694065,Z001360,0,,,八頭郡若桜町,,,,
S270600021100100,若桜町役場前,35.3405580048556,134.400717993822,Z005610,0,,,,,,,
S270600021100200,若桜町役場前,35.340662160321,134.400752709411,Z005610,0,,,,,,,
S270600021200100,若桜車庫,35.3376851555963,134.404398318356,Z005600,0,,,,,,,
S270600021200200,若桜車庫,35.3377025170819,134.404502475136,Z005600,0,,,,,,,
S270600021300100,南吉方,35.4882715415409,134.233436267498,Z004970,0,,,,,,,
S270600021300200,南吉方,35.4884190931617,134.233401543368,Z004970,0,,,,,,,
S270600021400100,吉方気象台前,35.4875512365079,134.237741461946,Z005390,0,,,,,,,
S270600021400200,吉方気象台前,35.4876901093652,134.237741457224,Z005390,0,,,,,,,
S270600021500100,南吉方三丁目,35.4870912793951,134.240345411037,Z005830,0,,,産業道路,,,,
S270600021500200,南吉方三丁目,35.4872388302267,134.240275967794,Z005830,0,,,産業道路,,,,
S270600021600100,立川南,35.4863622916644,134.244511729363,Z002980,0,,,,,,,
S270600021600200,立川南,35.4862060581196,134.24444229645,Z002980,0,,,,,,,
S270600021700100,大杙北,35.4851731943964,134.244581208023,Z000650,0,,,,,,,
S270600021700200,大杙北,35.4851818755297,134.244650645953,Z000650,0,,,,,,,
S270600021800100,大杙,35.4822481958701,134.245067375055,Z000640,0,,,,,,,
S270600021800200,大杙,35.4822047957324,134.244963219191,Z000640,0,,,,,,,
S270600021900100,大杙南,35.4811025121579,134.245831234494,Z000670,0,,,,,,,
S270600021900200,大杙南,35.4810677915738,134.245727078335,Z000670,0,,,,,,,
S270600022000100,面影一丁目,35.4789153151662,134.248053332096,Z000840,0,,,,,,,
S270600022000200,面影一丁目,35.4788979584279,134.248157490026,Z000840,0,,,,,,,
S270600022100100,白ゆり保育園前,35.4788632125716,134.246942322243,Z002400,0,,,,,,,
S270600022100200,白ゆり保育園前,35.4789152883146,134.246872882246,Z002400,0,,,,,,,
S270600022200100,面影中央,35.4777782391357,134.245657751933,Z000870,0,,,,,,,
S270600022200200,面影中央,35.4777695611613,134.245727190455,Z000870,0,,,,,,,
S270600022300100,面影団地,35.4763113898146,134.245449487111,Z000850,0,,,,,,,
S270600022300200,面影団地,35.4762853527326,134.245518926223,Z000850,0,,,,,,,
S270600022400100,面影団地入口,35.4734037464072,134.245762057951,Z000860,0,,,,,,,
S270600022400200,面影団地入口,35.4734124275401,134.245831495883,Z000860,0,,,,,,,
S270600022500100,桜ヶ丘中学校前,35.4723709229335,134.247671644293,Z001910,0,,,,,,,
S270600022500200,桜ヶ丘中学校前,35.472440359364,134.247671641933,Z001910,0,,,,,,,
S270600022600100,桜谷,35.4721886957342,134.249581201732,Z001920,0,,,,,,,
S270600022600200,桜谷,35.4721279380678,134.249546484683,Z001920,0,,,,,,,
S270600022700100,桜谷東,35.4721106200244,134.251351879179,Z001960,0,,,,,,,
S270600022700200,桜谷東,35.4720411835938,134.251351881539,Z001960,0,,,,,,,
S270600022800100,桜谷団地,35.4720933146198,134.253712779498,Z001950,0,,,,,,,
S270600022800200,桜谷団地,35.472023878189,134.253712781858,Z001950,0,,,,,,,
S270600022900100,桜ヶ丘,35.4736643351895,134.254650142165,Z001890,0,,,,,,,
S270600022900200,桜ヶ丘,35.4736556580053,134.254754299801,Z001890,0,,,,,,,
S270600023000100,団地口,35.4751224773261,134.253643238301,Z003020,0,,,,,,,
S270600023000200,団地口,35.4751919137565,134.25364323594,Z003020,0,,,,,,,
S270600023100100,東今在家,35.4776308517849,134.252914051638,Z004140,0,,,,,,,
S270600023100200,東今在家,35.4776308541545,134.253018208979,Z004140,0,,,,,,,
S270600023200100,三洋南団地,35.4798528428251,134.254024987718,Z002050,0,,,,,,,
S270600023200200,三洋南団地,35.4798007623428,134.253886113035,Z002050,0,,,,,,,
S270600023300100,新通り,35.4822310184298,134.253052771673,Z002040,0,,,,,,,
S270600023300200,新通り,35.4823612133154,134.253122205473,Z002040,0,,,,,,,
S270600023400100,鳥取県東部庁舎前,35.4836544075713,134.250518228002,Z005810,0,,,,,,,
S270600023400200,鳥取県東部庁舎前,35.4832812104604,134.251559814089,Z005810,0,,,,,,,
S270600023500100,市営住宅,35.4850170493137,134.248400315763,Z002060,0,,,,,,,
S270600023500200,市営住宅,35.4849042119566,134.248261443147,Z002060,0,,,,,,,
S270600023600100,吉方四区,35.4897124658782,134.23864408539,Z005400,0,,,,,,,
S270600023700100,正蓮寺簡易局前,35.4724836923861,134.244824673154,Z001940,0,,,,,,,
S270600023700200,正蓮寺簡易局前,35.4726225652469,134.244824668435,Z001940,0,,,,,,,
S270600023800100,ポリテクセンター,35.4411594582105,134.256977426958,Z004700,0,,,鳥取市,,,,
S270600023900100,若葉台南一丁目,35.4421576258916,134.257810651837,Z005660,0,,,,,,,
S270600024000100,さくら会館前,35.4442061412078,134.263990584766,Z001880,0,,,,,,,
S270600024100100,若葉台南三丁目,35.4460202462117,134.267427715557,Z005680,0,,,,,,,
S270600024200100,若葉台北四丁目,35.4495875350972,134.267080403245,Z005650,0,,,,,,,
S270600024300100,若葉台北三丁目,35.4519830367704,134.264649983831,Z005640,0,,,,,,,
S270600024400100,桜ヶ丘中学校,35.4695414223369,134.249164662332,Z001900,0,,,,,,,
S270600024500100,わらべ館前,35.5040336232439,134.233991237244,Z005740,0,,,,,,,
S270600024600100,福祉文化会館前,35.5031048778607,134.23253306614,Z004460,0,,,,,,,
S270600024700100,川端三丁目,35.5005356550364,134.229234837902,Z001150,0,,,,,,,
S270600024800100,瓦町,35.498530626878,134.226978163814,Z001170,0,,,鳥取市,,,,
S270600024900100,青翔開智校前,35.4809291572586,134.256212255263,Z005840,0,,,,,,,
S270600025000100,公園前,35.482534896822,134.257184335829,Z001650,0,,,あおば公園,,,,
S270600025100100,新町一丁目,35.482057562451,134.258989745963,Z002530,0,,,,,,,
S270600025200100,新町,35.4807903634045,134.259684171335,Z002520,0,,,鳥取市,,,,
S270600025300100,県立盲・聾学校,35.4801653825989,134.257358011983,Z001630,0,,,,,,,
S270600025400100,雲山日交,35.4750787139583,134.2375682903,Z001480,0,,,車庫内,,,,
S270600025400200,雲山日交,35.4751568291524,134.237533568533,Z001480,0,,,車庫内,,,,
S270600025500100,倉吉駅,35.4541522510928,133.850624538424,Z001550,0,,,,,,,２
S270600025500200,倉吉駅,35.4541088564482,133.850763416289,Z001550,0,,,,,,,４
S270600025600100,上井町一丁目西,35.4513140087132,133.84934002673,Z000060,0,,,,,,,
S270600025600200,上井町一丁目西,35.451314011829,133.849478903141,Z000060,0,,,,,,,
S270600025700100,山根パープルタウン前,35.4473387761421,133.849444317224,Z005240,0,,,,,,,
S270600025700200,山根パープルタウン前,35.4480678554131,133.849305416387,Z005240,0,,,,,,,
S270600025800100,伊木,35.4447956634411,133.849270806899,Z000160,0,,,,,,,
S270600025800200,伊木,35.444778307452,133.849409683893,Z000160,0,,,,,,,
S270600025900100,八ツ屋,35.4414800495513,133.848159906647,Z005170,0,,,,,,,
S270600025900200,八ツ屋,35.4416362807138,133.848125182311,Z005170,0,,,,,,,
S270600026000100,総合事務所前,35.4401693530583,133.844410287395,Z002720,0,,,倉吉市,,,,
S270600026000200,総合事務所前,35.4400565204357,133.844479729379,Z002720,0,,,倉吉市,,,,
S270600026100100,巌城,35.438745877674,133.843125728237,Z000360,0,,,,,,,
S270600026100200,巌城,35.4387545618977,133.843334042566,Z000360,0,,,,,,,
S270600026200100,厚生病院正面玄関前,35.4354389246447,133.841181569161,Z001680,0,,,,,,,
S270600026200200,厚生病院正面玄関前,35.4353694897829,133.841251009691,Z001680,0,,,,,,,
S270600026300100,合同庁舎前,35.4305436080767,133.838994429482,Z001700,0,,,,,,,
S270600026300200,合同庁舎前,35.4304307754523,133.839063871463,Z001700,0,,,,,,,
S270600026400100,倉吉パークスクエア,35.4311684673608,133.835939127483,Z001560,0,,,,,,,
S270600026400200,倉吉パークスクエア,35.4310903513896,133.835939130096,Z001560,0,,,,,,,
S270600026500100,総合運動公園入口,35.4305520627401,133.82896060837,Z002710,0,,,倉吉市,,,,
S270600026500200,総合運動公園入口,35.4306388574854,133.828925886363,Z002710,0,,,倉吉市,,,,
S270600026600100,市役所・打吹公園入口,35.4308904890375,133.825558124954,Z002220,0,,,,,,,
S270600026600200,市役所・打吹公園入口,35.4308036942924,133.82559284696,Z002220,0,,,,,,,
S270600026700100,白壁土蔵群前,35.4310727044037,133.823093062552,Z002370,0,,,,,,,
S270600026700200,白壁土蔵群前,35.4310032679852,133.823093064874,Z002370,0,,,,,,,
S270600026800100,瀬崎町,35.4313330124098,133.819586424461,Z002700,0,,,,,,,
S270600026800200,瀬崎町,35.4312375388902,133.819655865859,Z002700,0,,,,,,,
S270600026900100,鍛冶町一丁目,35.4297966445485,133.815697936326,Z000960,0,,,,,,,
S270600026900200,鍛冶町一丁目,35.4298747589637,133.815628495508,Z000960,0,,,,,,,
S270600027000100,河原町,35.4302131487482,133.810594214313,Z001160,0,,,倉吉市,,,,
S270600027000200,河原町,35.430117674451,133.810628936607,Z001160,0,,,倉吉市,,,,
S270600027100100,岡田,35.429015293565,133.807157063202,Z000780,0,,,,,,,
S270600027100200,岡田,35.4289545413638,133.807365379847,Z000780,0,,,,,,,
S270600027200100,西倉吉町,35.4272880354558,133.80594195234,Z003660,0,,,,,,,
S270600027200200,西倉吉町,35.4272186013697,133.806046111969,Z003660,0,,,,,,,
S270600027300100,西倉吉,35.4286767607078,133.805803029519,Z003650,0,,,,,,,
S270600027300200,西倉吉,35.4287635562303,133.805803026618,Z003650,0,,,,,,,
S270600027400100,長谷寺西口,35.4272622059455,133.815281391823,Z003090,0,,,,,,,
S270600027400200,長谷寺西口,35.4272361696214,133.815385550002,Z003090,0,,,,,,,
S270600027500100,みどり町,35.4243979365701,133.814517667303,Z004920,0,,,倉吉市,,,,
S270600027500200,みどり町,35.4243632206932,133.814621825772,Z004920,0,,,倉吉市,,,,
S270600027600100,八幡神社前,35.4216985421405,133.812122139417,Z005280,0,,,,,,,
S270600027600200,八幡神社前,35.4216291064989,133.81215686084,Z005280,0,,,,,,,
S270600027700100,八幡町上,35.4212124662177,133.81118473988,Z003890,0,,,,,,,
S270600027700200,八幡町上,35.4212211504344,133.811393054207,Z003890,0,,,,,,,
S270600027800100,富海,35.4171417748004,133.812018134362,Z003280,0,,,,,,,
S270600027800200,富海,35.4171157384753,133.812122292542,Z003280,0,,,,,,,
S270600027900100,下大江,35.4121857293634,133.81108088413,Z002120,0,,,,,,,
S270600027900200,下大江,35.4121944112476,133.81118504115,Z002120,0,,,,,,,
S270600028000100,東鴨新町,35.4095037157782,133.809657490465,Z004150,0,,,,,,,
S270600028000200,東鴨新町,35.4094776794521,133.809761648645,Z004150,0,,,,,,,
S270600028100100,長坂新町入口,35.4071949074064,133.807539702255,Z003460,0,,,,,,,
S270600028100200,長坂新町入口,35.4071515119748,133.807643861013,Z003460,0,,,,,,,
S270600028200100,長坂,35.4059970871992,133.805664910664,Z003450,0,,,,,,,
S270600028200200,長坂,35.4059536909904,133.805734350319,Z003450,0,,,,,,,
S270600028300100,弓削,35.4009281857751,133.803755529166,Z005300,0,,,,,,,
S270600028300200,弓削,35.4009021502247,133.803894406449,Z005300,0,,,,,,,
S270600028400100,大宮,35.3980552344442,133.80288764745,Z000760,0,,,,,,,
S270600028400200,大宮,35.398063916327,133.80299180447,Z000760,0,,,,,,,
S270600028500100,岩倉,35.3915889451919,133.801881009167,Z000370,0,,,,,,,
S270600028500200,岩倉,35.3915889475217,133.801985166479,Z000370,0,,,,,,,
S270600028600100,広瀬口,35.3886638373145,133.797471780541,Z004400,0,,,,,,,
S270600028600200,広瀬口,35.3886204418803,133.7975759393,Z004400,0,,,,,,,
S270600028700100,広瀬中,35.3837251586077,133.796881720438,Z004410,0,,,,,,,
S270600028700200,広瀬中,35.3837077971732,133.796777563706,Z004410,0,,,,,,,
S270600028800100,広瀬,35.3754014558109,133.796361211306,Z004390,0,,,,,,,
S270600028800200,広瀬,35.3753927785864,133.796465368908,Z004390,0,,,,,,,
S270600028900100,米子駅,35.4228683776095,133.335706663512,Z005490,0,,,,,,,おりば
S270600028900200,米子駅,35.4226774244465,133.335567793435,Z005490,0,,,,,,,２
S270600028900300,米子駅,35.4225298697992,133.335463641019,Z005490,0,,,,,,,３
S270600028900400,米子駅,35.4228336532881,133.335428911939,Z005490,0,,,,,,,５
S270600029000100,明治町,35.4245782038376,133.333658181008,Z005100,0,,,,,,,
S270600029100100,東町,35.4256023479015,133.331713878331,Z004230,0,,,,,,,
S270600029100200,東町,35.4256804661473,133.331818033029,Z004230,0,,,,,,,
S270600029200100,市役所前,35.4288484751335,133.330602760714,Z002230,0,,,米子市,,,,
S270600029200200,市役所前,35.4289352668082,133.330429162414,Z002230,0,,,米子市,,,,
S270600029300100,東倉吉町,35.4309749993164,133.332165049765,Z004160,0,,,,,,,
S270600029400100,高島屋・公会堂前,35.4319557999435,133.332685803832,Z006140,0,,,,,,,Ａ
S270600029400200,高島屋・公会堂前,35.4319644733719,133.332408050835,Z006140,0,,,,,,,Ｂ
S270600029400300,高島屋・公会堂前,35.4329018869616,133.333414873572,Z006140,0,,,,,,,Ｃ
S270600029500100,日の出町,35.4377625696465,133.339525273256,Z004280,0,,,,,,,
S270600029500200,日の出町,35.4376497385592,133.339664153326,Z004280,0,,,,,,,
S270600029600100,東福原,35.4371985083734,133.344490121549,Z004220,0,,,,,,,
S270600029600200,東福原,35.4370769923769,133.344385968282,Z004220,0,,,,,,,
S270600029700100,新開川橋,35.4342909678437,133.349420327935,Z002420,0,,,,,,,
S270600029700200,新開川橋,35.4343951247411,133.349524481774,Z002420,0,,,,,,,
S270600029800100,中島,35.4326506125181,133.353031167238,Z003470,0,,,,,,,
S270600029800200,中島,35.432520419267,133.353031171524,Z003470,0,,,,,,,
S270600029900100,車尾小学校北口,35.4327461978468,133.358030712985,Z001410,0,,,,,,,
S270600029900200,車尾小学校北口,35.4328590312321,133.35799599018,Z001410,0,,,,,,,
S270600030000100,車尾交差点前,35.4321820929587,133.361016573274,Z005480,0,,,,,,,
S270600030000200,車尾交差点前,35.4320432193909,133.360981858757,Z005480,0,,,,,,,
S270600030100100,日野橋東詰,35.4309324162262,133.369106162369,Z004290,0,,,,,,,
S270600030100200,日野橋東詰,35.4307501449065,133.369071449283,Z004290,0,,,,,,,
S270600030200100,熊党別れ,35.4291098325098,133.374626557734,Z001450,0,,,,,,,
S270600030200200,熊党別れ,35.4289622824548,133.374730719864,Z001450,0,,,,,,,
S270600030300100,浦津入口,35.4287019526525,133.377299941121,Z000530,0,,,,,,,
S270600030300200,浦津入口,35.4288321443734,133.377230498651,Z000530,0,,,,,,,
S270600030400100,伯耆大山駅北口,35.4318093772558,133.383896465895,Z004590,0,,,,,,,
S270600030400200,伯耆大山駅北口,35.431878811358,133.383792306335,Z004590,0,,,,,,,
S270600030500100,美濃,35.4339185723537,133.386812799968,Z004980,0,,,,,,,
S270600030500200,美濃,35.4338664973523,133.386916958955,Z004980,0,,,,,,,
S270600030600100,海川,35.439404025833,133.385805765509,Z000520,0,,,,,,,
S270600030600200,海川,35.43943006525,133.38584048374,Z000520,0,,,,,,,
S270600030700100,佐陀入口,35.4445511608687,133.393131323779,Z001970,0,,,,,,,
S270600030700200,佐陀入口,35.4446379556028,133.393096601825,Z001970,0,,,,,,,
S270600030800100,大和橋,35.4473287918139,133.401047184699,Z005220,0,,,,,,,
S270600030800200,大和橋,35.447224638747,133.401116626316,Z005220,0,,,,,,,
S270600030900100,小波入口,35.4489780145326,133.405942521998,Z001800,0,,,,,,,
S270600030900200,小波入口,35.4488912205662,133.406011963044,Z001800,0,,,,,,,
S270600031000100,坪上,35.4500109830745,133.410560126918,Z003160,0,,,,,,,
S270600031000200,坪上,35.449941547441,133.4105948483,Z003160,0,,,,,,,
S270600031100100,西原,35.4512349454999,133.417156713695,Z003690,0,,,,,,,
S270600031100200,西原,35.4511655090988,133.417156715989,Z003690,0,,,,,,,
S270600031200100,淀江支所前,35.4530750285551,133.417989911095,Z005430,0,,,,,,,
S270600031200200,淀江支所前,35.4529969149074,133.418094070947,Z005430,0,,,,,,,
S270600031300100,淀江中学校前,35.452693223565,133.422295090939,Z005460,0,,,,,,,
S270600031300200,淀江中学校前,35.4527453008659,133.422295089219,Z005460,0,,,,,,,
S270600031400100,駄倉,35.4541861584117,133.424655939783,Z002930,0,,,,,,,
S270600031400200,駄倉,35.4542208750762,133.424586500454,Z002930,0,,,,,,,
S270600031500100,淀江シルバーセンター前,35.4587082247594,133.425593205807,Z005450,0,,,,,,,
S270600031500200,淀江シルバーセンター前,35.4586648293134,133.425697364512,Z005450,0,,,,,,,
S270600031600100,淀江漁港入口,35.4620759462657,133.428127588104,Z005420,0,,,,,,,
S270600031600200,淀江漁港入口,35.4621193417113,133.428023429398,Z005420,0,,,,,,,
S270600031700100,今津,35.4662682488427,133.431738234906,Z000300,0,,,,,,,
S270600031700200,今津,35.4663463617192,133.431599355962,Z000300,0,,,,,,,
S270600031800100,保田,35.4707295767358,133.433508760973,Z005130,0,,,,,,,
S270600031800200,保田,35.47075561308,133.433404602841,Z005130,0,,,,,,,
S270600031900100,平田,35.4758505588613,133.435661175157,Z004340,0,,,,,,,
S270600031900200,平田,35.4758158429677,133.435765333577,Z004340,0,,,,,,,
S270600032000100,上万,35.4794786414715,133.437049818707,Z002330,0,,,,,,,
S270600032000200,上万,35.4794352460285,133.437153977413,Z002330,0,,,,,,,
S270600032100100,末吉,35.4858061832665,133.443819831799,Z002570,0,,,,,,,
S270600032100200,末吉,35.4858582582582,133.443715672804,Z002570,0,,,,,,,
S270600032200100,国信,35.4904238014591,133.448229003295,Z001440,0,,,,,,,
S270600032200200,国信,35.4904845559998,133.448124844013,Z001440,0,,,,,,,
S270600032300100,福尾,35.494633564699,133.456422569046,Z004430,0,,,,,,,
S270600032300200,福尾,35.4947116798775,133.456387847367,Z004430,0,,,,,,,
S270600032400100,大雀西口,35.4967081949371,133.466248002773,Z000680,0,,,,,,,
S270600032400200,大雀西口,35.4967776305656,133.466213281381,Z000680,0,,,,,,,
S270600032500100,大塚入口,35.49767169811,133.469546284396,Z000730,0,,,,,,,
S270600032500200,大塚入口,35.4975241473032,133.46961572747,Z000730,0,,,,,,,
S270600032600100,玉真園前,35.4976891280526,133.472740440125,Z001340,0,,,,,,,
S270600032600200,玉真園前,35.4978280016199,133.47277515461,Z001340,0,,,,,,,
S270600032700100,庄内農協前,35.4990779800211,133.478330167612,Z002300,0,,,,,,,
S270600032700200,庄内農協前,35.4991821330787,133.478260725976,Z002300,0,,,,,,,
S270600032800100,富長,35.5017253397801,133.482704685178,Z003330,0,,,,,,,
S270600032800200,富長,35.5016645844721,133.482774125375,Z003330,0,,,,,,,
S270600032900100,名和駅前,35.507436684675,133.491766178227,Z003600,0,,,,,,,
S270600032900200,名和駅前,35.507532158952,133.491731455966,Z003600,0,,,,,,,
S270600033000100,大山町役場前,35.5102663096341,133.495897656037,Z002850,0,,,,,,,
S270600033000200,大山町役場前,35.5101534785706,133.496036536147,Z002850,0,,,,,,,
S270600033100100,御来屋駅東口,35.5134171488912,133.503223279482,Z004880,0,,,,,,,
S270600033100200,御来屋駅東口,35.5135647012373,133.503223274579,Z004880,0,,,,,,,
S270600033200100,西坪,35.5128356961755,133.506695207865,Z003680,0,,,,,,,
S270600033200200,西坪,35.5129485334078,133.506834080479,Z003680,0,,,,,,,
S270600033300100,東坪,35.5134347108369,133.512354399757,Z004190,0,,,,,,,
S270600033300200,東坪,35.5135215055637,133.512319677781,Z004190,0,,,,,,,
S270600033400100,真子川,35.5139556296376,133.518916290628,Z002440,0,,,,,,,
S270600033400200,真子川,35.5140424235929,133.518846849561,Z002440,0,,,,,,,
S270600033500100,小竹入口,35.513799499596,133.523499215842,Z001760,0,,,,,,,
S270600033500200,小竹入口,35.5138862958664,133.523533932047,Z001760,0,,,,,,,
S270600033600100,倉谷入口,35.513738837672,133.527769666077,Z001530,0,,,,,,,
S270600033600200,倉谷入口,35.5136433618514,133.527734950161,Z001530,0,,,,,,,
S270600033700100,木料,35.5133918185455,133.535095405899,Z001350,0,,,,,,,
S270600033700200,木料,35.5134786132728,133.535060683922,Z001350,0,,,,,,,
S270600033800100,前谷,35.5137737889972,133.538254830524,Z004750,0,,,,,,,
S270600033800200,前谷,35.5136609548481,133.538254834277,Z004750,0,,,,,,,
S270600033900100,長野,35.5151973849896,133.544990286941,Z003520,0,,,,,,,
S270600033900200,長野,35.5150064341184,133.544955574203,Z003520,0,,,,,,,
S270600034000100,下市入口,35.5175410017313,133.551204926371,Z002110,0,,,,,,,
S270600034000200,下市入口,35.5175670388362,133.55113548732,Z002110,0,,,,,,,
S270600034100100,イオン東館,35.4456707208247,133.388513647871,Z000150,0,,,,,,,
S270600034100200,イオン東館,35.4457488367754,133.388513645294,Z000150,0,,,,,,,
S270600034200100,天満屋前,35.4406616319611,133.343726187571,Z003200,0,,,,,,,
S270600034200200,天満屋前,35.4407484236321,133.343552589269,Z003200,0,,,,,,,
S270600034300100,備中屋前,35.4427708230842,133.346468926139,Z004270,0,,,,,,,
S270600034300200,備中屋前,35.4428836534043,133.346295326979,Z004270,0,,,,,,,
S270600034400100,上福原,35.4472235600878,133.352266867314,Z001060,0,,,,,,,
S270600034400200,上福原,35.4473016737388,133.352162707473,Z001060,0,,,,,,,
S270600034500100,リビンズ山根前,35.4502614906454,133.356259462431,Z005550,0,,,,,,,
S270600034500200,リビンズ山根前,35.4503309247458,133.356155302876,Z005550,0,,,,,,,
S270600034600100,新田,35.4521276444361,133.358550860792,Z002470,0,,,米子市,,,,
S270600034600200,新田,35.4523533234602,133.359036920597,Z002470,0,,,米子市,,,,
S270600034700100,皆生温泉観光センター,35.4561376386086,133.360460278484,Z000890,0,,,,,,,
S270600034800100,労災病院,35.4517806111116,133.365286375494,Z005570,0,,,,,,,
S270600034800200,労災病院,35.4518066497613,133.365286374635,Z005570,0,,,,,,,
S270600034900100,イオン西館,35.4467208627927,133.384729232434,Z000140,0,,,,,,,
S270600034900200,イオン西館,35.44679897951,133.384763948948,Z000140,0,,,,,,,
S270600035000100,新田川,35.4467462752374,133.356363735536,Z002480,0,,,,,,,
S270600035000200,新田川,35.4466594789721,133.356329019307,Z002480,0,,,,,,,
S270600035100100,皆生四軒屋公園前,35.446555446194,133.361849357903,Z000900,0,,,,,,,
S270600035100200,皆生四軒屋公園前,35.4465901628613,133.36177991858,Z000900,0,,,,,,,
S270600035200100,米子産業体育館前,35.4533685909868,133.34816981237,Z005500,0,,,,,,,
S270600035200200,米子産業体育館前,35.4533512295892,133.348065655677,Z005500,0,,,,,,,
S270600035300100,米子医療センター,35.4350290030096,133.361815018574,Z005470,0,,,,,,,
S270600035300200,米子医療センター,35.4349595666088,133.361815020861,Z005470,0,,,,,,,
S270600035400100,伯耆大山駅入口,35.4283896076315,133.382681410423,Z004580,0,,,,,,,
S270600035400200,伯耆大山駅入口,35.4284590440336,133.382681408135,Z004580,0,,,,,,,
S270600035500100,伯耆大山駅,35.4292228666841,133.38368823659,Z004570,0,,,,,,,
S270600035500200,伯耆大山駅,35.429257586418,133.383757673627,Z004570,0,,,,,,,
S270600035600100,上口２区,35.4327033080744,133.381049471029,Z006050,0,,,,,,,
S270600035700100,上口１区,35.4364094798343,133.381222944331,Z006040,0,,,,,,,
S270600035800100,日吉津村役場,35.4404194358293,133.381396407594,Z006030,0,,,,,,,
S270600035900100,富吉,35.4440214698167,133.382333704257,Z006020,0,,,,,,,
S270600036000100,倉吉ＢＣ,35.4620853282053,133.849131351104,Z001580,0,,,,,,,
S270600036000200,倉吉ＢＣ,35.4620506123346,133.849235509575,Z001580,0,,,,,,,
S270600036100100,海田,35.459654992083,133.846388623479,Z000920,0,,,,,,,
S270600036100200,海田,35.4595942359977,133.846423344617,Z000920,0,,,,,,,
S270600036200100,河北中学校前,35.453240792178,133.845902770995,Z000990,0,,,,,,,
S270600036200200,河北中学校前,35.4531626762088,133.845902773613,Z000990,0,,,,,,,
S270600036300100,厚生病院前,35.4371574409744,133.839619151995,Z001690,0,,,,,,,
S270600036300200,厚生病院前,35.4372529137144,133.83951499149,Z001690,0,,,,,,,
S270600036400100,倉吉パークスクエア北口,35.4340327110736,133.835557121508,Z001570,0,,,,,,,
S270600036400200,倉吉パークスクエア北口,35.4341108239315,133.835418242481,Z001570,0,,,,,,,
S270600036500100,宮川町,35.4328869058886,133.830904800033,Z005010,0,,,,,,,
S270600036500200,宮川町,35.4328001150342,133.831113117554,Z005010,0,,,,,,,
S270600036600100,堺町,35.4330777867895,133.827814793481,Z001830,0,,,,,,,
S270600036600200,堺町,35.4329909974909,133.828092549208,Z001830,0,,,,,,,
S270600036700100,赤瓦・白壁土蔵,35.4332599967022,133.82510669736,Z000020,0,,,,,,,
S270600036700200,赤瓦・白壁土蔵,35.4331992258327,133.824481755541,Z000020,0,,,,,,,
S270600036800100,新町,35.4334421677251,133.82066264611,Z002510,0,,,倉吉市,,,,
S270600036800200,新町,35.4335289648034,133.820732081412,Z002510,0,,,倉吉市,,,,
S270600036900100,福吉町,35.4335462546804,133.817642080695,Z004530,0,,,,,,,
S270600036900200,福吉町,35.433476819818,133.817711521223,Z004530,0,,,,,,,
S270600037000100,広瀬町,35.4317234670461,133.813996635873,Z004420,0,,,,,,,
S270600037000200,広瀬町,35.4317495010368,133.813788320387,Z004420,0,,,,,,,
S270600037100100,丸山,35.4248664831231,133.807851583909,Z004860,0,,,倉吉市,,,,
S270600037100200,丸山,35.4248664862326,133.807990460318,Z004860,0,,,倉吉市,,,,
S270600037200100,生田,35.420656864486,133.806254645837,Z000170,0,,,,,,,
S270600037200200,生田,35.420656867595,133.806393522248,Z000170,0,,,,,,,
S270600037300100,生田日ノ丸前,35.4186431904613,133.805456173741,Z000180,0,,,,,,,
S270600037300200,生田日ノ丸前,35.4186345140178,133.805595050443,Z000180,0,,,,,,,
S270600037400100,保育園前,35.4118296742124,133.802435839336,Z004600,0,,,小鴨,,,,
S270600037400200,保育園前,35.411820996214,133.802505277831,Z004600,0,,,小鴨,,,,
S270600037500100,中河原,35.4091823656506,133.800422219742,Z003440,0,,,,,,,
S270600037500200,中河原,35.4091563293239,133.800526377921,Z003440,0,,,,,,,
S270600037600100,市場,35.4060489780681,133.797332324155,Z000250,0,,,,,,,
S270600037600200,市場,35.4060489803983,133.797436481465,Z000250,0,,,,,,,
S270600037700100,蔵内入口,35.4011796434854,133.792610688608,Z001510,0,,,,,,,
S270600037700200,蔵内入口,35.4012317184709,133.792506529561,Z001510,0,,,,,,,
S270600037800100,上古川,35.3986017550392,133.789867965449,Z001080,0,,,,,,,
S270600037800200,上古川,35.3985670391581,133.789972123916,Z001080,0,,,,,,,
S270600037900100,石塚入口,35.3962842624894,133.787541862825,Z000190,0,,,,,,,
S270600037900200,石塚入口,35.3962408662791,133.787611302478,Z000190,0,,,,,,,
S270600038000100,診療所前,35.3937410969173,133.785007453089,Z002540,0,,,,,,,
S270600038000200,診療所前,35.3937063810356,133.785111611556,Z002540,0,,,,,,,
S270600038100100,福山,35.3913628405191,133.782368880526,Z004520,0,,,,,,,
S270600038100200,福山,35.3913975564013,133.78226472206,Z004520,0,,,,,,,
S270600038200100,若土,35.3865977226685,133.780424769556,Z005620,0,,,,,,,
S270600038200200,若土,35.3866063998934,133.780320611957,Z005620,0,,,,,,,
S270600038300100,生竹,35.3777618038137,133.774418659009,Z003590,0,,,,,,,
S270600038300200,生竹,35.3777097288241,133.774522818053,Z003590,0,,,,,,,
S270600038400100,耳,35.3752012892188,133.772335598057,Z004990,0,,,,,,,
S270600038400200,耳,35.3751578937816,133.772439756813,Z004990,0,,,,,,,
S270600038500100,関金入口,35.368639373636,133.764558737272,Z002650,0,,,,,,,
S270600038500200,関金入口,35.368708808508,133.764489296755,Z002650,0,,,,,,,
S270600038600100,関金温泉,35.3662871156101,133.760114770276,Z002660,0,,,,,,,
S270600038600200,関金温泉,35.3663565489325,133.759975891552,Z002660,0,,,,,,,
S270600038700100,大坪,35.3638133485122,133.755879121927,Z000740,0,,,,,,,
S270600038700200,大坪,35.3638480636239,133.755740244358,Z000740,0,,,,,,,
S270600038800100,郡家,35.3582756473727,133.749317395486,Z001730,0,,,,,,,
S270600038800200,郡家,35.3582409314851,133.749421553951,Z001730,0,,,,,,,
S270600038900100,曽谷入口,35.3541007289941,133.746921916101,Z002740,0,,,,,,,
S270600038900200,曽谷入口,35.3541267715252,133.747095510754,Z002740,0,,,,,,,
S270600039000100,田中,35.3480250179325,133.745845825765,Z002990,0,,,,,,,
S270600039000200,田中,35.3480336959369,133.745776387268,Z002990,0,,,,,,,
S270600039100100,山口,35.3438067110452,133.743866976962,Z005190,0,,,,,,,
S270600039100200,山口,35.3437806739346,133.743936416034,Z005190,0,,,,,,,
S270600039200100,山口上,35.3409337209335,133.741263139571,Z005200,0,,,,,,,
S270600039200200,山口上,35.3408729656105,133.741332579797,Z005200,0,,,,,,,
S270600039300100,矢櫃,35.3340680528302,133.734909771442,Z005180,0,,,,,,,
S270600039300200,矢櫃,35.3339638974192,133.734875055793,Z005180,0,,,,,,,
S270600039400100,大河原,35.332983059174,133.732687784785,Z000630,0,,,,,,,
S270600039400200,大河原,35.3330524940513,133.732618344273,Z000630,0,,,,,,,
S270600039500100,金谷,35.3668164342615,133.754108347767,Z000970,0,,,,,,,
S270600039500200,金谷,35.3668771895811,133.754038907539,Z000970,0,,,,,,,
S270600039600100,中学校入口,35.3696547069122,133.756746905205,Z003070,0,,,鴨川中,,,,
S270600039600200,中学校入口,35.3695765924874,133.756816346011,Z003070,0,,,鴨川中,,,,
S270600039700100,関金庁舎前,35.3698976840148,133.754490155406,Z002670,0,,,,,,,
S270600039700200,関金庁舎前,35.36981956959,133.754559596211,Z002670,0,,,,,,,
S270600039800100,関金ＢＣ,35.3702100859188,133.751712616755,Z002680,0,,,,,,,
S270600039800200,関金ＢＣ,35.3701406494971,133.751712619065,Z002680,0,,,,,,,
S270600039900100,大鳥居,35.370522464583,133.747893505021,Z000750,0,,,,,,,
S270600039900200,大鳥居,35.3705919010047,133.747893502711,Z000750,0,,,,,,,
S270600040000100,松河原,35.3694026690346,133.741921856545,Z004790,0,,,,,,,
S270600040000200,松河原,35.3693505932677,133.741991296482,Z004790,0,,,,,,,
S270600040100100,松河原上,35.3688644267811,133.736991761832,Z004800,0,,,,,,,
S270600040100200,松河原上,35.3689251828753,133.736957040709,Z004800,0,,,,,,,
S270600040200100,泰久寺入口,35.3685171788464,133.734040649639,Z002810,0,,,,,,,
S270600040200200,泰久寺入口,35.3684651015305,133.73404065137,Z002810,0,,,,,,,
S270600040300100,泰久寺,35.3681091593385,133.73042987652,Z002800,0,,,,,,,
S270600040300200,泰久寺,35.3680570835713,133.730499316456,Z002800,0,,,,,,,
S270600040400100,崎山入口,35.3611478446124,133.716368871254,Z001850,0,,,,,,,
S270600040400200,崎山入口,35.3611912408282,133.716299431608,Z001850,0,,,,,,,
S270600040500100,今西,35.3604881428981,133.713869117781,Z000310,0,,,,,,,
S270600040500200,今西,35.3604273860294,133.713869119799,Z000310,0,,,,,,,
S270600040600100,今西上,35.3607311169868,133.711473491645,Z000320,0,,,,,,,
S270600040600200,今西上,35.3606703601183,133.711473493662,Z000320,0,,,,,,,
S270600040700100,下堀,35.3612604482404,133.706022575006,Z002200,0,,,,,,,
S270600040700200,下堀,35.3611910125929,133.706057296413,Z002200,0,,,,,,,
S270600040800100,堀集会場前,35.3613384628868,133.701474370033,Z004690,0,,,,,,,
S270600040800200,堀集会場前,35.3614165788602,133.70147436744,Z004690,0,,,,,,,
S270600040900100,山守小学校前,35.3625882163713,133.696891407084,Z005260,0,,,,,,,
S270600040900200,山守小学校前,35.3626402952333,133.696960843559,Z005260,0,,,,,,,
S270600041000100,明高東口,35.3671534259231,133.686336648656,Z005070,0,,,,,,,
S270600041000200,明高東口,35.3672402229939,133.686406083978,Z005070,0,,,,,,,
S270600041100100,明高入口,35.3689326112487,133.6808162525,Z005060,0,,,,,,,
S270600041100200,明高入口,35.3688371353992,133.680781536568,Z005060,0,,,,,,,
S270600041200100,明高,35.372786161669,133.673143203299,Z005050,0,,,,,,,
S270600041200200,明高,35.3726993653729,133.673108487078,Z005050,0,,,,,,,
S270600041300100,小浜,35.5192079764285,133.960994379478,Z001810,0,,,,,,,
S270600041300200,小浜,35.5191385415799,133.961063820028,Z001810,0,,,,,,,
S270600041400100,石脇車庫,35.515223911783,133.954328446032,Z000210,0,,,,,,,
S270600041400200,石脇車庫,35.5153020254012,133.954224286087,Z000210,0,,,,,,,
S270600041500100,石脇,35.513835057453,133.948738717233,Z000200,0,,,,,,,
S270600041500200,石脇,35.5139131718544,133.948669276393,Z000200,0,,,,,,,
S270600041600100,恐竜広場前,35.5134443852661,133.944641876224,Z001330,0,,,,,,,
S270600041600200,恐竜広場前,35.5135832588784,133.944676590645,Z001330,0,,,,,,,
S270600041700100,泊庁舎前,35.5133140879113,133.940024239902,Z003310,0,,,,,,,
S270600041700200,泊庁舎前,35.5132706752852,133.939364578406,Z003310,0,,,,,,,
S270600041800100,泊駅前,35.5093300781616,133.935788643607,Z003300,0,,,,,,,
S270600041800200,泊駅前,35.509312722187,133.935927520605,Z003300,0,,,,,,,
S270600041900100,原入口,35.5055195460627,133.926518771479,Z004060,0,,,,,,,
S270600041900200,原入口,35.5053199155877,133.9264840591,Z004060,0,,,,,,,
S270600042000100,宇谷東口,35.5058230801894,133.915408648358,Z000480,0,,,,,,,
S270600042000200,宇谷東口,35.5057189255677,133.915408651865,Z000480,0,,,,,,,
S270600042100100,宇谷,35.5065867556863,133.909853566238,Z000470,0,,,,,,,
S270600042100200,宇谷,35.5066735519857,133.909888282419,Z000470,0,,,,,,,
S270600042200100,宇野東口,35.5072461109357,133.896938038005,Z000510,0,,,,,,,
S270600042200200,宇野東口,35.5073242261198,133.896903316275,Z000510,0,,,,,,,
S270600042300100,宇野西口,35.5067078896749,133.892980078486,Z000500,0,,,,,,,
S270600042300200,宇野西口,35.5066471343753,133.893049518735,Z000500,0,,,,,,,
S270600042400100,三軒屋,35.5063952446167,133.884925257374,Z002030,0,,,,,,,
S270600042400200,三軒屋,35.5063258089843,133.884959978812,Z002030,0,,,,,,,
S270600042500100,ハワイ海水浴場前,35.5063691099156,133.880654808746,Z004090,0,,,,,,,
S270600042500200,ハワイ海水浴場前,35.5062475969735,133.880689531935,Z004090,0,,,,,,,
S270600042600100,橋津東口,35.5059263637766,133.876696846056,Z003870,0,,,,,,,
S270600042600200,橋津東口,35.5060218380638,133.876662123744,Z003870,0,,,,,,,
S270600042700100,橋津藩倉入口,35.5010658007982,133.876072065657,Z005780,0,,,,,,,
S270600042700200,橋津藩倉入口,35.5010224014786,133.876002628913,Z005780,0,,,,,,,
S270600042800100,上橋津,35.4975506330931,133.878328925446,Z005770,0,,,,,,,
S270600042800200,上橋津,35.497541950419,133.87819004933,Z005770,0,,,,,,,
S270600042900100,南谷大橋南側,35.494825308481,133.880759354196,Z005760,0,,,,,,,
S270600042900200,南谷大橋南側,35.4947905879322,133.880655198058,Z005760,0,,,,,,,
S270600043000100,衛生環境研究所前,35.493020057723,133.885029864448,Z005750,0,,,,,,,
S270600043000200,衛生環境研究所前,35.4929766584025,133.884960427702,Z005750,0,,,,,,,
S270600043100100,羽合ひかり園前,35.4910410902404,133.88371060508,Z004100,0,,,,,,,
S270600043100200,羽合ひかり園前,35.4910237342591,133.883849482073,Z004100,0,,,,,,,
S270600043200100,臨海公園前,35.4876820935216,133.883259369639,Z005560,0,,,,,,,
S270600043200200,臨海公園前,35.487690770732,133.883155212041,Z005560,0,,,,,,,
S270600043300100,運転免許試験場,35.484956697835,133.882530360068,Z000580,0,,,,,,,
S270600043300200,運転免許試験場,35.4849393356094,133.882391484241,Z000580,0,,,,,,,
S270600043400100,ハワイゆ～たうん前,35.4824482792332,133.881280556652,Z005580,0,,,,,,,
S270600043400200,ハワイゆ～たうん前,35.4824482823547,133.881419433061,Z005580,0,,,,,,,
S270600043500100,はわい温泉,35.4779523298376,133.88388464038,Z004080,0,,,,,,,
S270600043500200,はわい温泉,35.4779523321786,133.883988797689,Z004080,0,,,,,,,
S270600043600100,上浅津,35.4811028940593,133.878850264666,Z001000,0,,,,,,,
S270600043600200,上浅津,35.4810508144068,133.878746109107,Z001000,0,,,,,,,
S270600043700100,上浅津入口,35.4817104158793,133.87676709811,Z001010,0,,,,,,,
S270600043700200,上浅津入口,35.4817885326269,133.876801814588,Z001010,0,,,,,,,
S270600043800100,長江入口,35.4834027155227,133.867288726348,Z003430,0,,,,,,,
S270600043800200,長江入口,35.4833419586596,133.867288728388,Z003430,0,,,,,,,
S270600043900100,ハワイアロハホール,35.4870827815376,133.8644416364,Z004070,0,,,,,,,
S270600043900200,ハワイアロハホール,35.487013342003,133.864302762324,Z004070,0,,,,,,,
S270600044000100,長瀬西口,35.4882457876572,133.862045979315,Z003480,0,,,,,,,
S270600044000200,長瀬西口,35.488176352023,133.862080700749,Z003480,0,,,,,,,
S270600044100100,北溟中学校前,35.48566786407,133.857740897256,Z004640,0,,,,,,,
S270600044100200,北溟中学校前,35.4854942730342,133.857740903084,Z004640,0,,,,,,,
S270600044200100,田後,35.4827341248765,133.855484254123,Z002950,0,,,,,,,
S270600044200200,田後,35.4826994105677,133.855657850798,Z002950,0,,,,,,,
S270600044300100,信生病院前,35.4777866337733,133.848957229011,Z006110,0,,,,,,,
S270600044300200,信生病院前,35.4778387071871,133.848783631755,Z006110,0,,,,,,,
S270600044400100,七峰公園西,35.4749310386085,133.847950470854,Z006100,0,,,,,,,
S270600044400200,七峰公園西,35.4749483930361,133.847742155661,Z006100,0,,,,,,,
S270600044500100,倉吉警察署,35.4716501485096,133.847082603352,Z006090,0,,,,,,,
S270600044500200,倉吉警察署,35.4716935415935,133.846874287284,Z006090,0,,,,,,,
S270600044600100,河北プラザ前,35.4698100718132,133.84656187853,Z006080,0,,,,,,,
S270600044600200,河北プラザ前,35.4698447853456,133.846353562754,Z006080,0,,,,,,,
S270600044700100,河北中央公園西,35.467258268736,133.845902301158,Z006070,0,,,,,,,
S270600044700200,河北中央公園西,35.4673103405936,133.845659265697,Z006070,0,,,,,,,
S270600044800100,人材育成センター前,35.4634566374324,133.84645793425,Z001240,0,,,,,,,
S270600044800200,人材育成センター前,35.4635434329524,133.84645793134,Z001240,0,,,,,,,
S270600044900100,湯梨浜町役場前,35.4893828963051,133.865934480529,Z005360,0,,,,,,,
S270600044900200,湯梨浜町役場前,35.4893134598909,133.865934482861,Z005360,0,,,,,,,
S270600045000100,久留西,35.492585773402,133.871385271925,Z004110,0,,,,,,,
S270600045000200,久留西,35.4925250141987,133.871281116662,Z004110,0,,,,,,,
S270600045100100,長瀬東口,35.4957451731595,133.87329471636,Z003490,0,,,,,,,
S270600045100200,長瀬東口,35.4957625291413,133.87315583937,Z003490,0,,,,,,,
S270600045200100,橋津中央入口,35.5019770850346,133.873016754077,Z003860,0,,,,,,,
S270600045200200,橋津中央入口,35.5019770881567,133.873155630484,Z003860,0,,,,,,,
S270600045300100,倉吉北高前,35.4648454436708,133.84992979792,Z004470,0,,,,,,,
S270600045300200,倉吉北高前,35.4648541216643,133.849860359424,Z004470,0,,,,,,,
S270600045400100,福庭北,35.4672844102498,133.850485221772,Z003080,0,,,,,,,
S270600045400200,福庭北,35.4672757322564,133.850554660268,Z003080,0,,,,,,,
S270600045500100,清谷,35.4725616097908,133.851908527966,Z002640,0,,,,,,,
S270600045500200,清谷,35.4725876461083,133.851804369786,Z002640,0,,,,,,,
S270600045600100,田後入口,35.4791754657447,133.853574822956,Z002960,0,,,,,,,
S270600045600200,田後入口,35.479175463406,133.853470665651,Z002960,0,,,,,,,
S270600045700100,住吉町,35.4319669262559,133.833265729822,Z002620,0,,,,,,,
S270600045800100,上福原三叉路,35.4456351273951,133.348864448932,Z001070,0,,,,,,,
S270600045800200,上福原三叉路,35.4455656894642,133.348795013041,Z001070,0,,,,,,,
S270600045900100,車検場前,35.4472320703728,133.344593948411,Z002240,0,,,,,,,
S270600045900200,車検場前,35.4471799923079,133.344559231038,Z002240,0,,,,,,,
S270600046000100,西福原,35.4483690186533,133.341295597546,Z003710,0,,,,,,,
S270600046000200,西福原,35.4482995814889,133.341260880745,Z003710,0,,,,,,,
S270600046100100,米原別れ,35.4494278509878,133.337997249268,Z005520,0,,,,,,,
S270600046100200,米原別れ,35.4494972881519,133.33803196607,Z005520,0,,,,,,,
S270600046200100,上三柳,35.4512851582642,133.332719886681,Z000460,0,,,,,,,
S270600046200200,上三柳,35.4512157211007,133.33268516988,Z000460,0,,,,,,,
S270600046300100,三柳二区,35.4521617353716,133.330115926206,Z004910,0,,,,,,,
S270600046300200,三柳二区,35.4521183368575,133.330081208547,Z004910,0,,,,,,,
S270600046400100,三柳三区,35.4534028321349,133.326539819273,Z004900,0,,,,,,,
S270600046400200,三柳三区,35.4533333949719,133.326505102472,Z004900,0,,,,,,,
S270600046500100,自衛隊正門前,35.4554163820319,133.321748518854,Z002070,0,,,,,,,
S270600046500200,自衛隊正門前,35.4554337388351,133.32164436102,Z002070,0,,,,,,,
S270600046600100,博愛病院前,35.4565707123856,133.319491740149,Z003850,0,,,,,,,
S270600046600200,博愛病院前,35.4565359926564,133.319422303117,Z003850,0,,,,,,,
S270600046700100,住宅入口,35.4577250358509,133.316922489664,Z002250,0,,,米子市,,,,
S270600046700200,住宅入口,35.4576555986888,133.316887772863,Z002250,0,,,米子市,,,,
S270600046800100,加茂小学校入口,35.4602594704505,133.317200158914,Z001110,0,,,,,,,
S270600046800200,加茂小学校入口,35.4602768280189,133.317130720168,Z001110,0,,,,,,,
S270600046900100,住宅団地,35.4628546848506,133.31851939877,Z002260,0,,,米子市,,,,
S270600046900200,住宅団地,35.462906760617,133.31844995888,Z002260,0,,,米子市,,,,
S270600047000100,下三柳,35.4589834840671,133.312999191355,Z002210,0,,,,,,,
S270600047000200,下三柳,35.4590529219941,133.313068627244,Z002210,0,,,,,,,
S270600047100100,河崎四軒屋,35.4610925380874,133.309527213198,Z001130,0,,,,,,,
S270600047100200,河崎四軒屋,35.4610317789453,133.309423057936,Z001130,0,,,,,,,
S270600047200100,鉄工センター入口,35.4636875994377,133.30390263567,Z003180,0,,,,,,,
S270600047200200,鉄工センター入口,35.4636962774571,133.303833197211,Z003180,0,,,,,,,
S270600047300100,鉄工センター,35.4669684813678,133.304458033045,Z003170,0,,,,,,,
S270600047300200,鉄工センター,35.4670552783923,133.30452746836,Z003170,0,,,,,,,
S270600047400100,夜見二区,35.4690861774233,133.299284819408,Z005530,0,,,,,,,
S270600047400200,夜見二区,35.4691990138602,133.299388972953,Z005530,0,,,,,,,
S270600047500100,樋口川,35.4704054069595,133.29647252997,Z004260,0,,,,,,,
S270600047500200,樋口川,35.4704835244336,133.296541965571,Z004260,0,,,,,,,
S270600047600100,弓ヶ浜,35.472774828304,133.292132566176,Z005320,0,,,,,,,
S270600047600200,弓ヶ浜,35.4727140699292,133.292063130003,Z005320,0,,,,,,,
S270600047700100,福祉センター入口,35.4755955709071,133.287098205833,Z004440,0,,,,,,,
S270600047700200,福祉センター入口,35.4756736899095,133.287237079605,Z004440,0,,,,,,,
S270600047800100,富益南口,35.4792929410857,133.281751344901,Z003340,0,,,,,,,
S270600047800200,富益南口,35.4792321819473,133.281647189645,Z003340,0,,,,,,,
S270600047900100,真誠会前,35.4822612642974,133.278001585943,Z002450,0,,,,,,,
S270600047900200,真誠会前,35.4822265445716,133.277932148916,Z002450,0,,,,,,,
S270600048000100,上井町一丁目東,35.4527288372587,133.852082788446,Z000070,0,,,,,,,
S270600048000200,上井町一丁目東,35.452789595682,133.852152224615,Z000070,0,,,,,,,
S270600048100100,山根入口,35.4527375713467,133.854513125357,Z005230,0,,,,,,,
S270600048100200,山根入口,35.4526507758248,133.854513128266,Z005230,0,,,,,,,
S270600048200100,倉吉病院前,35.4529372555872,133.856943455873,Z001590,0,,,,,,,
S270600048200200,倉吉病院前,35.4529980124525,133.856943453836,Z001590,0,,,,,,,
S270600048300100,佐美,35.4532238592666,133.864894120879,Z002010,0,,,,,,,
S270600048300200,佐美,35.4532932972432,133.864963556757,Z002010,0,,,,,,,
S270600048400100,埴見入口,35.4561837058353,133.870206044424,Z003950,0,,,,,,,
S270600048400200,埴見入口,35.4562097421532,133.87010188624,Z003950,0,,,,,,,
S270600048500100,長和田,35.4614263276851,133.877878790373,Z003580,0,,,,,,,
S270600048500200,長和田,35.4613829314839,133.877948230036,Z003580,0,,,,,,,
S270600048600100,野花,35.4624247148775,133.88850280251,Z003820,0,,,,,,,
S270600048600200,野花,35.4624941520754,133.888537519283,Z003820,0,,,,,,,
S270600048700100,引地,35.4640566119257,133.894786905474,Z004250,0,,,,,,,
S270600048700200,引地,35.4640132157252,133.894856345138,Z004250,0,,,,,,,
S270600048800100,東郷橋,35.465419344548,133.896696410414,Z003230,0,,,,,,,
S270600048800200,東郷橋,35.4653672687956,133.89676585037,Z003230,0,,,,,,,
S270600048900100,松崎駅前,35.4694033565799,133.901036164552,Z004810,0,,,,,,,
S270600048900200,松崎駅前,35.4694554323319,133.900966724596,Z004810,0,,,,,,,
S270600049000100,松崎幼稚園入口,35.4724586221851,133.903848309293,Z004820,0,,,,,,,
S270600049000200,松崎幼稚園入口,35.4724759789472,133.903744151399,Z004820,0,,,,,,,
S270600049100100,藤津入口,35.476078033693,133.905549423731,Z004540,0,,,,,,,
S270600049100200,藤津入口,35.4761387882153,133.905445264378,Z004540,0,,,,,,,
S270600049200100,白石入口,35.4799927647696,133.916798281683,Z002360,0,,,,,,,
S270600049200200,白石入口,35.4800622004054,133.916763560244,Z002360,0,,,,,,,
S270600049300100,舎人,35.4813120926326,133.918395316081,Z003290,0,,,,,,,
S270600049300200,舎人,35.4813554888307,133.918325876414,Z003290,0,,,,,,,
S270600049400100,漆原,35.4841850814237,133.920929714008,Z000570,0,,,,,,,
S270600049400200,漆原,35.4842111185172,133.920860274925,Z000570,0,,,,,,,
S270600049500100,北方入口,35.486962579512,133.922769733052,Z001250,0,,,,,,,
S270600049500200,北方入口,35.4869278644298,133.922908610634,Z001250,0,,,,,,,
S270600049600100,原,35.5004680280924,133.925685683132,Z004050,0,,,,,,,
S270600049600200,原,35.5004680249649,133.925546806719,Z004050,0,,,,,,,
S270600049700100,富士見町,35.4320426497758,133.335150856291,Z004550,0,,,,,,,
S270600049700200,富士見町,35.4327022848614,133.334664767341,Z004550,0,,,,,,,
S270600049800100,糀町,35.4298814992182,133.337754859079,Z001670,0,,,,,,,
S270600049800200,糀町,35.4295516916228,133.338449251714,Z001670,0,,,,,,,
S270600049900100,昭和町,35.4258195922371,133.343310047013,Z002350,0,,,,,,,
S270600049900200,昭和町,35.4262014748386,133.342511495392,Z002350,0,,,,,,,
S270600050000100,明道小学校入口,35.4252642127821,133.348379052363,Z005110,0,,,,,,,
S270600050000200,明道小学校入口,35.4251947771464,133.348413773737,Z005110,0,,,,,,,
S270600050100100,水道山橋,35.425568085841,133.352406456765,Z002550,0,,,,,,,
S270600050100200,水道山橋,35.4256375222423,133.35240645448,Z002550,0,,,,,,,
S270600050200100,観音寺新町入口,35.4260281915821,133.356468575125,Z001190,0,,,,,,,
S270600050200200,観音寺新町入口,35.4259500748648,133.356433858607,Z001190,0,,,,,,,
S270600050300100,観音寺新町西口,35.4247089114401,133.3569894049,Z001210,0,,,,,,,
S270600050300200,観音寺新町西口,35.4246915546369,133.35709356274,Z001210,0,,,,,,,
S270600050400100,観音寺新町中央,35.4234330443604,133.358204615043,Z001200,0,,,,,,,
S270600050400200,観音寺新町中央,35.4235111603123,133.358204612472,Z001200,0,,,,,,,
S270600050500100,観音寺新町東口,35.4238236800199,133.360739095755,Z001220,0,,,,,,,
S270600050500200,観音寺新町東口,35.4238236777226,133.360634938484,Z001220,0,,,,,,,
S270600050600100,車尾,35.4282155347147,133.360843108437,Z001390,0,,,,,,,
S270600050600200,車尾,35.428206858228,133.360981985082,Z001390,0,,,,,,,
S270600050700100,車尾五丁目,35.4295435158455,133.361294412879,Z001400,0,,,,,,,
S270600050700200,車尾五丁目,35.429534838593,133.361398570435,Z001400,0,,,,,,,
S270600050800100,日野橋南,35.4305071098403,133.368724266388,Z004310,0,,,,,,,
S270600050800200,日野橋南,35.4305157916889,133.368828423372,Z004310,0,,,,,,,
S270600050900100,ポリテクセンター,35.42274763254,133.370564633707,Z004710,0,,,米子市,,,,
S270600050900200,ポリテクセンター,35.4227823545712,133.370738228015,Z004710,0,,,米子市,,,,
S270600051000100,豊田北口,35.4187030126529,133.372856226846,Z003370,0,,,,,,,
S270600051000200,豊田北口,35.418755093019,133.372995101494,Z003370,0,,,,,,,
S270600051100100,豊田公会堂前,35.4174531719568,133.373515930717,Z003380,0,,,,,,,
S270600051100200,豊田公会堂前,35.4173837386178,133.373654809364,Z003380,0,,,,,,,
S270600051200100,豊田作業所前,35.415239913421,133.374731171753,Z003390,0,,,,,,,
S270600051200200,豊田作業所前,35.4152746339206,133.374835327882,Z003390,0,,,,,,,
S270600051300100,十日市作業所前,35.4110390554434,133.376745017304,Z003240,0,,,,,,,
S270600051300200,十日市作業所前,35.4110216986404,133.376849175149,Z003240,0,,,,,,,
S270600051400100,高島入口,35.4061438969678,133.381640570275,Z002910,0,,,,,,,
S270600051400200,高島入口,35.4061872954865,133.381675287938,Z002910,0,,,,,,,
S270600051500100,八幡橋,35.4039914894642,133.387126257564,Z005290,0,,,,,,,
S270600051500200,八幡橋,35.4040696061856,133.387160974084,Z005290,0,,,,,,,
S270600051600100,東八幡,35.4031322813743,133.390181565907,Z004240,0,,,,,,,
S270600051600200,東八幡,35.4031930382286,133.390181563907,Z004240,0,,,,,,,
S270600051700100,水浜,35.4018738492051,133.394833965628,Z004890,0,,,,,,,
S270600051700200,水浜,35.401908568174,133.394868683577,Z004890,0,,,,,,,
S270600051800100,遠藤,35.3968137615711,133.398930985055,Z000610,0,,,,,,,
S270600051800200,遠藤,35.3968398017558,133.399000422382,Z000610,0,,,,,,,
S270600051900100,西部自動車学校前,35.4319571159053,133.392333200016,Z003760,0,,,,,,,
S270600051900200,西部自動車学校前,35.4319571113048,133.392124885473,Z003760,0,,,,,,,
S270600052000100,今在家入口,35.4261071779714,133.395909459202,Z000290,0,,,,,,,
S270600052000200,今在家入口,35.4260377392683,133.395805304217,Z000290,0,,,,,,,
S270600052100100,尾高,35.4253349157762,133.40576970653,Z000820,0,,,,,,,
S270600052100200,尾高,35.4252567975215,133.405665551832,Z000820,0,,,,,,,
S270600052200100,尾高上,35.4230870579512,133.41236640801,Z000830,0,,,,,,,
S270600052200200,尾高上,35.4231738526888,133.412331686057,Z000830,0,,,,,,,
S270600052300100,岡成,35.423304212431,133.419865724639,Z000790,0,,,,,,,
S270600052300200,岡成,35.4232087373755,133.419865727788,Z000790,0,,,,,,,
S270600052400100,ビラ大山,35.4191645035306,133.439621024607,Z004350,0,,,,,,,
S270600052400200,ビラ大山,35.4191297822571,133.439482149383,Z004350,0,,,,,,,
S270600052500100,本宮,35.4183836611215,133.453960035646,Z004720,0,,,,,,,
S270600052500200,本宮,35.418461777078,133.453960033068,Z004720,0,,,,,,,
S270600052600100,一の谷入口,35.4144433824461,133.464688365507,Z000230,0,,,,,,,
S270600052600200,一の谷入口,35.4145301779543,133.464688362642,Z000230,0,,,,,,,
S270600052700100,赤松入口,35.4120566465729,133.471042038423,Z000050,0,,,,,,,
S270600052800100,赤松,35.4155112138754,133.475833159245,Z000040,0,,,,,,,
S270600052900100,アスレチック前,35.4099649839275,133.475972218802,Z000110,0,,,,,,,
S270600052900200,アスレチック前,35.4098695065617,133.475868064674,Z000110,0,,,,,,,
S270600053000100,中槙原,35.4080121779579,133.480173293657,Z003560,0,,,,,,,
S270600053000200,中槙原,35.4080555780185,133.480277449506,Z003560,0,,,,,,,
S270600053100100,上槙原,35.4019453624096,133.48878382939,Z001090,0,,,,,,,
S270600053100200,上槙原,35.4020148003557,133.488853265287,Z001090,0,,,,,,,
S270600053200100,槙原駐車場入口,35.4003658509313,133.496317925094,Z004770,0,,,,,,,
S270600053200200,槙原駐車場入口,35.4004352873404,133.496317922801,Z004770,0,,,,,,,
S270600053300100,仁王茶屋,35.3959310747895,133.517739753328,Z003620,0,,,,,,,
S270600053300200,仁王茶屋,35.3958442792764,133.517739756197,Z003620,0,,,,,,,
S270600053400100,大山寺,35.3939871176779,133.529579029232,Z002830,0,,,,,,,
S270600053400200,大山寺,35.3940391926773,133.529474870223,Z002830,0,,,,,,,
S270600055300100,大山口駅,35.484843043242,133.456908960694,Z002820,0,,,,,,,
S270600055300200,大山口駅,35.4846781348714,133.457047842519,Z002820,0,,,,,,,
S270600055400100,大山口南口,35.4823260460885,133.460172638575,Z002870,0,,,,,,,
S270600055400200,大山口南口,35.482239247511,133.460033765087,Z002870,0,,,,,,,
S270600055500100,所子入口,35.4788456473452,133.464720954742,Z003250,0,,,,,,,
S270600055500200,所子入口,35.4787588495365,133.464616800346,Z003250,0,,,,,,,
S270600055600100,平木,35.4734471241893,133.471803828134,Z004330,0,,,,,,,
S270600055600200,平木,35.4734471272677,133.471942704499,Z004330,0,,,,,,,
S270600055700100,中高入口,35.4724924021502,133.473088466134,Z003500,0,,,,,,,
S270600055700200,中高入口,35.4724924059983,133.47326206159,Z003500,0,,,,,,,
S270600055800100,神原,35.4700535232086,133.476456298783,Z001230,0,,,,,,,
S270600055800200,神原,35.470149002109,133.476629891079,Z001230,0,,,,,,,
S270600055900100,平,35.46659918999,133.482219782417,Z004320,0,,,,,,,
S270600055900200,平,35.4666859885715,133.482358655909,Z004320,0,,,,,,,
S270600056000100,仁王堂公園前,35.464273159808,133.486247274125,Z003630,0,,,,,,,
S270600056000200,仁王堂公園前,35.4642297597472,133.486143118287,Z003630,0,,,,,,,
S270600056100100,宮内入口,35.4576421357576,133.493121874024,Z005000,0,,,,,,,
S270600056100200,宮内入口,35.4576681767185,133.49322603044,Z005000,0,,,,,,,
S270600056200100,坊領,35.4551771765369,133.494614876642,Z004620,0,,,,,,,
S270600056200200,坊領,35.4551424629542,133.494823192347,Z004620,0,,,,,,,
S270600056300100,佐摩,35.4444840480322,133.498121859088,Z002020,0,,,,,,,
S270600056300200,佐摩,35.4445014117518,133.498330173071,Z002020,0,,,,,,,
S270600056400100,総合センター前,35.4400575018388,133.499233016598,Z002730,0,,,西伯郡,,,,
S270600056400200,総合センター前,35.4401095822216,133.499371891247,Z002730,0,,,西伯郡,,,,
S270600056500100,鈑戸,35.4326538466212,133.499302699793,Z002970,0,,,,,,,
S270600056500200,鈑戸,35.4326451693791,133.49940685736,Z002970,0,,,,,,,
S270600056600100,種原,35.4253022647826,133.499198785707,Z003010,0,,,,,,,
S270600056600200,種原,35.4253283057434,133.499302942128,Z003010,0,,,,,,,
S270600056700100,あけまの森,35.4176470016731,133.503747240201,Z000080,0,,,,,,,
S270600056700200,あけまの森,35.4176730434036,133.503886115718,Z000080,0,,,,,,,
S270600056800100,籠立橋,35.4133767187465,133.506281875292,Z000950,0,,,,,,,
S270600056800200,籠立橋,35.4133854013749,133.506420751383,Z000950,0,,,,,,,
S270600056900100,けんべい前,35.4253170675236,133.383618927101,Z001620,0,,,,,,,
S270600056900200,けんべい前,35.425334424325,133.383514769258,Z001620,0,,,,,,,
S270600057000100,下新印北口,35.4214373123571,133.383792650365,Z002150,0,,,,,,,
S270600057000200,下新印北口,35.4214459934401,133.383862088261,Z002150,0,,,,,,,
S270600057100100,下新印,35.4172971852153,133.38462604491,Z002140,0,,,,,,,
S270600057100200,下新印,35.4172451056139,133.384521889352,Z002140,0,,,,,,,
S270600057200100,上新印,35.4108397521635,133.391535356715,Z001030,0,,,,,,,
S270600057200200,上新印,35.410935228752,133.391604791753,Z001030,0,,,,,,,
S270600057300100,一部,35.4088695509008,133.394104634365,Z000260,0,,,,,,,
S270600057300200,一部,35.4089216305034,133.394208789925,Z000260,0,,,,,,,
S270600057400100,河岡,35.4053544907932,133.401256883018,Z001120,0,,,,,,,
S270600057400200,河岡,35.4052676945204,133.401222166785,Z001120,0,,,,,,,
S270600057500100,中福万,35.4032888481862,133.405353803902,Z003540,0,,,,,,,
S270600057500200,中福万,35.4033496073407,133.405457959178,Z003540,0,,,,,,,
S270600057600100,福万,35.4023428461537,133.408478553352,Z004510,0,,,,,,,
S270600057600200,福万,35.402429643194,133.408547988679,Z004510,0,,,,,,,
S270600057700100,石州府別れ,35.4012492748946,133.410839487645,Z002690,0,,,,,,,
S270600057700200,石州府別れ,35.4013273923845,133.410908923257,Z002690,0,,,,,,,
S270600057800100,日下,35.4025339074396,133.41351281544,Z001380,0,,,,,,,
S270600057800200,日下,35.4026380612815,133.413478092916,Z001380,0,,,,,,,
S270600057900100,新田,35.4667894381491,133.839895912219,Z002460,0,,,倉吉市,,,,
S270600057900200,新田,35.466815475247,133.839826473142,Z002460,0,,,倉吉市,,,,
S270600058000100,中江,35.4689767023734,133.840659659135,Z003420,0,,,,,,,
S270600058000200,中江,35.4689853803672,133.84059022064,Z003420,0,,,,,,,
S270600058100100,大塚,35.4735595392737,133.842152426846,Z000720,0,,,,,,,
S270600058100200,大塚,35.4735248234038,133.842256585316,Z000720,0,,,,,,,
S270600058200100,天神橋,35.4798609242931,133.843506260452,Z003190,0,,,,,,,
S270600058200200,天神橋,35.4798609266311,133.843610417756,Z003190,0,,,,,,,
S270600058300100,江北,35.4810673344516,133.841388354786,Z000590,0,,,,,,,
S270600058300200,江北,35.4811541299692,133.841388351875,Z000590,0,,,,,,,
S270600058400100,西みどり団地入口,35.481796299911,133.836180465125,Z003750,0,,,,,,,
S270600058400200,西みどり団地入口,35.481865737104,133.836215181897,Z003750,0,,,,,,,
S270600058500100,国坂東口,35.482178076306,133.830660115228,Z001430,0,,,,,,,
S270600058500200,国坂東口,35.4820912800099,133.830625399037,Z001430,0,,,,,,,
S270600058600100,国坂,35.4820911717302,133.825799443993,Z001420,0,,,,,,,
S270600058600200,国坂,35.4821953255715,133.825764721399,Z001420,0,,,,,,,
S270600058700100,田井,35.481075478828,133.817536332033,Z002750,0,,,,,,,
S270600058700200,田井,35.4811449144625,133.817501610604,Z002750,0,,,,,,,
S270600058800100,弓原,35.4821950000576,133.811252137285,Z005330,0,,,,,,,
S270600058800200,弓原,35.4823251956674,133.811356290223,Z005330,0,,,,,,,
S270600058900100,下北条駅前,35.4831670459975,133.808405138465,Z002190,0,,,,,,,
S270600058900200,下北条駅前,35.4830802473677,133.808266264972,Z002190,0,,,,,,,
S270600059000100,下神,35.4845382501197,133.801044643246,Z002160,0,,,,,,,
S270600059000200,下神,35.4845382680217,133.80184318255,Z002160,0,,,,,,,
S270600059100100,松神,35.4854234694236,133.796808883372,Z004780,0,,,,,,,
S270600059100200,松神,35.4855102649385,133.796808880464,Z004780,0,,,,,,,
S270600059200100,東園,35.487046242095,133.783268380086,Z004170,0,,,,,,,
S270600059200200,東園,35.4871590848207,133.783650286402,Z004170,0,,,,,,,
S270600059300100,東園入口,35.4877317913098,133.777227233817,Z004180,0,,,,,,,
S270600059300200,東園入口,35.4876449950182,133.777192517623,Z004180,0,,,,,,,
S270600059400100,西園,35.4891463186622,133.7665337039,Z003670,0,,,,,,,
S270600059400200,西園,35.4891810601937,133.767575275709,Z003670,0,,,,,,,
S270600059500100,由良新橋,35.4895107540808,133.761811894244,Z005350,0,,,,,,,
S270600059500200,由良新橋,35.4894152766844,133.761707740143,Z005350,0,,,,,,,
S270600059600100,青山剛昌ふるさと館,35.4982163548534,133.76229767016,Z006060,0,,,,,,,
S270600059600200,青山剛昌ふるさと館,35.498172957875,133.762332390711,Z006060,0,,,,,,,
S270600059700100,北栄町大栄庁舎前,35.4912986405832,133.757298351559,Z004630,0,,,,,,,
S270600059700200,北栄町大栄庁舎前,35.4913767580991,133.757367787142,Z004630,0,,,,,,,
S270600059800100,由良駅,35.4904653461446,133.754729166148,Z005340,0,,,,,,,
S270600059800200,由良駅,35.4904913832438,133.754659727079,Z005340,0,,,,,,,
S270600059900100,日野橋北,35.431704896957,133.369140856014,Z004300,0,,,,,,,
S270600059900200,日野橋北,35.4317048946586,133.369036698744,Z004300,0,,,,,,,
S270600060000100,北口,35.4368432634309,133.372439000266,Z001260,0,,,,,,,
S270600060000200,北口,35.4368866604152,133.372404279746,Z001260,0,,,,,,,
S270600060100100,富吉入口,35.4386053569609,133.379000850187,Z003360,0,,,,,,,
S270600060100200,富吉入口,35.4386487539449,133.378966129666,Z003360,0,,,,,,,
S270600060200100,日吉津,35.4388918419078,133.381708929764,Z004120,0,,,,,,,
S270600060200200,日吉津,35.4389439184419,133.381674208958,Z004120,0,,,,,,,
S270600060300100,佐陀西口,35.4406019555858,133.392680105868,Z001980,0,,,,,,,
S270600060300200,佐陀西口,35.4406366730196,133.392645385633,Z001980,0,,,,,,,
S270600060400100,佐陀農協前,35.4407929869893,133.396360323143,Z001990,0,,,,,,,
S270600060400200,佐陀農協前,35.4409145022257,133.396429757315,Z001990,0,,,,,,,
S270600060500100,佐陀橋,35.4426678672488,133.400769585774,Z002000,0,,,,,,,
S270600060500200,佐陀橋,35.4427199437826,133.400734864965,Z002000,0,,,,,,,
S270600060600100,中間,35.4436313464196,133.402991575772,Z003550,0,,,,,,,
S270600060600200,中間,35.4436921025035,133.402956854677,Z003550,0,,,,,,,
S270600060700100,小波,35.4456624701209,133.407921619591,Z001790,0,,,,,,,
S270600060700200,小波,35.4457492633204,133.407817459455,Z001790,0,,,,,,,
S270600060800100,淀江小学校入口,35.4523546781073,133.420350833046,Z005440,0,,,,,,,
S270600060800200,淀江小学校入口,35.4523373159355,133.420211957257,Z005440,0,,,,,,,
S270600060900100,安原,35.4692628665249,133.439549931215,Z005150,0,,,,,,,
S270600060900200,安原,35.4692802240876,133.439480492461,Z005150,0,,,,,,,
S270600061000100,安原入口,35.4710074668396,133.440035940767,Z005160,0,,,,,,,
S270600061000200,安原入口,35.4710161433146,133.439897064119,Z005160,0,,,,,,,
S270600061100100,一の宮神社前,35.4727260569461,133.441806557519,Z000240,0,,,,,,,
S270600061100200,一の宮神社前,35.4726566220837,133.441875997997,Z000240,0,,,,,,,
S270600061200100,妻木,35.4729170670156,133.444514640255,Z005090,0,,,,,,,
S270600061200200,妻木,35.4729778238656,133.444514638244,Z005090,0,,,,,,,
S270600061300100,稲光,35.4773523447353,133.445764380721,Z000270,0,,,,,,,
S270600061300200,稲光,35.4773697022972,133.445694941966,Z000270,0,,,,,,,
S270600061400100,大山西小学校前,35.4815707490623,133.45222199187,Z002860,0,,,,,,,
S270600061400200,大山西小学校前,35.4815881058544,133.452117834025,Z002860,0,,,,,,,
S270600061500100,末長,35.4821436301281,133.453610736514,Z002560,0,,,,,,,
S270600061500200,末長,35.4820828748171,133.453680176708,Z002560,0,,,,,,,
S270600647100200,浜坂小学校入口,35.5285963258225,134.214964328398,Z006150,0,,,迂回,,,,
S270600647100100,浜坂小学校入口,35.528613699936,134.215623990905,Z006150,0,,,迂回,,,,
S270600647200100,谷川橋,35.5209589757453,134.24381616969,Z006160,0,,,迂回,,,,
S270600647300100,北園ニュータウン,35.5200563022129,134.243816200436,Z006170,0,,,迂回,,,,
S270600647400100,情報センター前,35.518285672567,134.24378154163,Z006180,0,,,迂回,,,,
S270600647500100,面影中央,35.4780733621258,134.246456281507,Z006190,0,,,迂回,,,,
S270600647500200,面影中央,35.4781080779716,134.246352122987,Z006190,0,,,迂回,,,,
S270600647600100,面影団地,35.4766412247021,134.245970262601,Z006200,0,,,迂回,,,,
S270600647600200,面影団地,35.4766846208916,134.245900822898,Z006200,0,,,迂回,,,,
S270600647700100,倉田保育園前,35.4515219701439,134.218438858554,Z001540,0,,,,,,,
S270600647700200,倉田保育園前,35.45158272781,134.218473575606,Z001540,0,,,,,,,
